     2.10           OBSERVATION DATA    M (MIXED)           RINEX VERSION / TYPE
GPP.DLL V3.06                           17 - JUN - 21 17:56 PGM / RUN BY / DATE 
AMCO                                                        MARKER NAME         
AMCO                                                        MARKER NUMBER       
                                                            OBSERVER / AGENCY   
4723K06228          TRIMBLE NETR5       3.84                REC # / TYPE / VERS 
31053960            TRM55971.00     NONE                    ANT # / TYPE        
  2652254.9440 -5775435.4015  -538087.1637                  APPROX POSITION XYZ 
        0.0080       -0.0000       -0.0000                  ANTENNA: DELTA H/E/N
     1     1                                                WAVELENGTH FACT L1/2
     7    L1    L2    C1    P2    S1    S2    P1            # / TYPES OF OBSERV 
    15.000                                                  INTERVAL            
  2020     7     1    12     0    0.0000000     GPS         TIME OF FIRST OBS   
  2020     7     1    14     0    0.0000000     GPS         TIME OF LAST OBS    
    18                                                      LEAP SECONDS        
    54                                                      # OF SATELLITES     
   G01  1437  1437  1437  1437  1437  1437     0            PRN / # OF OBS      
   G02  2505  2450  2505  2450  2505  2450     0            PRN / # OF OBS      
   G03  2350  2349  2350  2349  2350  2349     0            PRN / # OF OBS      
   G04  2191  2191  2191  2191  2191  2191     0            PRN / # OF OBS      
   G05  2374  2371  2374  2343  2374  2371     0            PRN / # OF OBS      
   G06  2446  2446  2446  2446  2446  2446     0            PRN / # OF OBS      
   G07  1664  1662  1664  1640  1664  1662     0            PRN / # OF OBS      
   G08  1431  1430  1431  1430  1431  1430     0            PRN / # OF OBS      
   G09  2312  2312  2312  2312  2312  2312     0            PRN / # OF OBS      
   G10  1571  1571  1571  1571  1571  1571     0            PRN / # OF OBS      
   G11  1522  1459  1522  1459  1522  1459     0            PRN / # OF OBS      
   G12  2372  2368  2372  2337  2372  2368     0            PRN / # OF OBS      
   G13  1467  1416  1467  1416  1467  1416     0            PRN / # OF OBS      
   G14  1851  1560  1851  1560  1851  1560     0            PRN / # OF OBS      
   G15  1788  1773  1788  1722  1788  1773     0            PRN / # OF OBS      
   G16  2342  1962  2342  1962  2342  1962     0            PRN / # OF OBS      
   G17  2456  2451  2456  2425  2456  2451     0            PRN / # OF OBS      
   G18  1709  1708  1709  1708  1709  1708     0            PRN / # OF OBS      
   G19  2052  1751  2052  1751  2052  1751     0            PRN / # OF OBS      
   G20  1557  1485  1557  1485  1557  1485     0            PRN / # OF OBS      
   G21  2291  2194  2291  2194  2291  2194     0            PRN / # OF OBS      
   G22  2327  2274  2327  2274  2327  2274     0            PRN / # OF OBS      
   G24  1473  1473  1473  1473  1473  1473     0            PRN / # OF OBS      
   G25  2245  2245  2245  2245  2245  2245     0            PRN / # OF OBS      
   G26  1515  1512  1515  1512  1515  1512     0            PRN / # OF OBS      
   G27  1413  1413  1413  1413  1413  1413     0            PRN / # OF OBS      
   G28  1523  1461  1523  1461  1523  1461     0            PRN / # OF OBS      
   G29  2326  2325  2326  2300  2326  2325     0            PRN / # OF OBS      
   G30  2157  2155  2157  2155  2157  2155     0            PRN / # OF OBS      
   G31  2459  2459  2459  2419  2459  2459     0            PRN / # OF OBS      
   G32  2370  2365  2370  2365  2370  2365     0            PRN / # OF OBS      
   R01  2501  2488  2501  2488  2501  2488  2496            PRN / # OF OBS      
   R02  1887  1880  1887  1880  1887  1880  1884            PRN / # OF OBS      
   R03  1223  1222  1223  1222  1223  1222  1222            PRN / # OF OBS      
   R04  1315  1312  1315  1312  1315  1312  1313            PRN / # OF OBS      
   R05  2144  2144  2144  2144  2144  2144  2144            PRN / # OF OBS      
   R06  1698     0  1698     0  1698     0  1696            PRN / # OF OBS      
   R07  1243  1243  1243  1243  1243  1243  1243            PRN / # OF OBS      
   R08  1650  1650  1650  1650  1650  1650  1648            PRN / # OF OBS      
   R09  1280  1279  1280  1279  1280  1279  1279            PRN / # OF OBS      
   R10  1714     0  1714     0  1714     0  1711            PRN / # OF OBS      
   R11  2588  2588  2588  2588  2588  2588  2587            PRN / # OF OBS      
   R12  2419  2410  2419  2410  2419  2410  2417            PRN / # OF OBS      
   R13   928   927   928   927   928   927   927            PRN / # OF OBS      
   R14  1888  1848  1888  1848  1888  1848  1884            PRN / # OF OBS      
   R15  2238  2186  2238  2186  2238  2186  2236            PRN / # OF OBS      
   R16  1158  1154  1158  1154  1158  1154  1158            PRN / # OF OBS      
   R17  1987  1983  1987  1983  1987  1983  1980            PRN / # OF OBS      
   R18  1240  1240  1240  1240  1240  1240  1240            PRN / # OF OBS      
   R19   889   889   889   889   889   889   887            PRN / # OF OBS      
   R20   983   983   983   983   983   983   978            PRN / # OF OBS      
   R21  2044  2041  2044  2041  2044  2041  2042            PRN / # OF OBS      
   R23  2049  1984  2049  1984  2049  1984  2045            PRN / # OF OBS      
   R24  2480  2478  2480  2478  2480  2478  2480            PRN / # OF OBS      
                                                            END OF HEADER       
 20  7  1 12  0  0.0000000  0 19G 1G22G 9G 8G16G 7G 3G31G 4R 6R18R 5
                                R20R 4G11R15R19R16R14
 107735506.138 7  83949802.058 8  20501409.688    20501402.438          48.000
        55.000  
 119492927.655 6  93111251.70444  22738733.742    22738721.684          43.000
        31.000  
 117455871.014 6  91524108.916 7  22351134.734    22351126.957          45.000
        50.000  
 119597983.122 6  93193252.420 7  22758755.906    22758748.363          43.000
        50.000  
 131535493.655 4 102495292.2904   25030406.336    25030398.555          35.000
        13.000  
 129943049.032 6 101254308.229 5  24727347.320    24727337.664          42.000
        38.000  
 121676210.198 6  94812494.382 7  23154189.336    23154181.617          43.000
        50.000  
 130547866.697 5 101725613.619 6  24842447.633    24842438.914          40.000
        41.000  
 110478565.499 6  86087159.949 8  21023372.438    21023363.840          44.000
        55.000  
 125171519.07114                  23457087.164                          32.000
                  23457086.250
 116083965.568 6  90287486.980 6  21746434.305    21746426.898          43.000
        43.000    21746433.980
 119032045.064 6  92580422.582 6  22267404.617    22267396.973          43.000
        43.000    22267403.820
 114970129.564 5  89421176.782 6  21499991.445    21499984.977          36.000
        44.000    21499990.297
 127444746.778 4  99123648.316 3  23799408.539    23799400.543          31.000
        29.000    23799406.805
 108289078.485 6  84381090.48945  20606736.539    20606725.652          43.000
        38.000  
 116389660.027 6  90525160.408 6  21780717.539    21780709.426          45.000
        42.000    21780717.332
 103169389.163 5  80242823.964 7  19286432.680    19286424.098          36.000
        46.000    19286431.063
 122578393.948 5  95338713.106 5  22946926.953    22946918.254          37.000
        36.000    22946925.805
 124902996.697 6  97146724.345 5  23431484.641    23431473.945          41.000
        36.000    23431483.375
 20  7  1 12  0 15.0000000  0 18G 1G22G 9G 8G16G 7G 3G31G 4R 6R18R 5
                                R20G11R15R19R16R14
 107712305.909 7  83931723.961 8  20496994.914    20496987.723          49.000
        55.000  
 119486181.908 6  93105995.25644  22737449.883    22737437.941          44.000
        31.000  
 117442221.256 6  91513472.731 7  22348537.039    22348529.672          45.000
        50.000  
 119640324.039 6  93226245.331 7  22766812.383    22766805.426          43.000
        50.000  
 131535905.020 5 102495612.72641  25030486.336    25030477.090          37.000
        16.000  
 129889626.165 6 101212680.046 5  24717181.414    24717171.582          42.000
        38.000  
 121667464.711 6  94805679.693 7  23152524.047    23152517.441          42.000
        50.000  
 130584960.491 5 101754517.856 6  24849506.539    24849497.527          40.000
        41.000  
 110491548.481 6  86097276.525 8  21025843.664    21025834.598          45.000
        55.000  
 125171627.057 4                  23457108.742                          33.000
                  23457107.008
 116143079.156 6  90333464.162 6  21757510.219    21757501.988          43.000
        43.000    21757509.188
 119053664.649 6  92597237.826 6  22271448.305    22271440.898          43.000
        43.000    22271447.859
 114921399.894 5  89383275.929 6  21490878.773    21490872.891          36.000
        45.000    21490878.094
 108303268.039 6  84392147.28345  20609436.289    20609425.520          43.000
        39.000  
 116365834.058 6  90506629.099 6  21776258.477    21776250.129          45.000
        43.000    21776258.270
 103184524.000 5  80254595.489 7  19289261.500    19289253.387          36.000
        46.000    19289260.703
 122535504.083 5  95305354.302 5  22938898.172    22938888.301          37.000
        36.000    22938896.320
 124913521.844 6  97154910.576 4  23433457.797    23433447.691          41.000
        35.000    23433458.059
 20  7  1 12  0 30.0000000  0 18G 1G22G 9G 8G16G 7G 3G31G 4R18R 5R20
                                G17G11R15R19R16R14
 107689215.856 7  83913731.719 8  20492601.081    20492593.240          48.000
        55.000  
 119479419.027 6  93100725.50143  22736162.917    22736150.785          44.000
        30.000  
 117428666.718 6  91502910.757 7  22345958.071    22345950.354          45.000
        50.000  
 119682663.299 6  93259236.924 7  22774870.154    22774862.852          43.000
        50.000  
 131536271.998 5 102495898.65841  25030554.945    25030547.281          37.000
        16.000  
 129836177.678 6 101171031.889 5  24707010.540    24707000.542          42.000
        38.000  
 121658674.272 6  94798830.030 7  23150852.031    23150845.652          43.000
        50.000  
 130622121.920 6 101783474.807 5  24856578.155    24856568.547          41.000
        40.000  
 110504617.760 7  86107460.370 8  21028330.914    21028322.023          47.000
        55.000  
 116202261.224 6  90379494.651 6  21768597.344    21768588.293          43.000
        42.000    21768596.898
 119075254.701 6  92614030.060 6  22275485.781    22275479.430          41.000
        43.000    22275485.219
 114872794.021 4  89345471.349 6  21481789.742    21481783.508          35.000
        45.000    21481788.594
 128467942.564 4 100104887.144 5  24446646.383    24446637.551          34.000
        40.000  
 108317573.022 6  84403294.01145  20612158.274    20612147.915          45.000
        39.000  
 116342075.100 6  90488149.907 6  21771813.078    21771804.379          45.000
        44.000    21771811.813
 103199852.268 5  80266517.510 7  19292127.453    19292118.051          36.000
        46.000    19292125.484
 122492568.653 5  95271960.077 5  22930859.750    22930849.879          38.000
        36.000    22930859.660
 124924167.836 6  97163190.747 5  23435455.500    23435447.504          41.000
        36.000    23435455.879
 20  7  1 12  0 45.0000000  0 18G 1G22G 9G 8G16G 7G 3G31G 4R18R 5R20
                                G17G11R15R19R16R14
 107666244.317 7  83895831.827 8  20488229.792    20488222.478          48.000
        55.000  
 119472647.287 6  93095448.79444  22734874.956    22734862.413          44.000
        31.000  
 117415215.439 6  91492429.233 7  22343398.189    22343390.528          44.000
        50.000  
 119725008.314 6  93292233.040 7  22782926.709    22782920.520          43.000
        50.000  
 131536602.846 5 102496156.40341  25030618.055    25030609.570          37.000
        16.000  
 129782711.926 6 101129370.279 5  24696836.236    24696826.648          41.000
        38.000  
 121649846.973 6  94791951.597 7  23149172.390    23149165.307          42.000
        50.000  
 130659358.759 6 101812490.507 5  24863664.124    24863654.282          41.000
        39.000  
 110517781.188 7  86117717.576 8  21030835.753    21030826.388          48.000
        55.000  
 116261519.450 6  90425584.379 6  21779699.289    21779690.004          43.000
        42.000    21779697.672
 119096823.122 6  92630805.488 6  22279521.250    22279513.844          42.000
        42.000    22279520.805
 114824320.558 5  89307769.777 6  21472724.539    21472719.477          36.000
        45.000    21472723.625
 128438861.969 4 100082226.969 5  24441110.266    24441102.020          33.000
        40.000  
 108332001.429 6  84414536.92345  20614903.853    20614893.786          45.000
        39.000  
 116318391.900 7  90469729.636 6  21767381.242    21767372.426          46.000
        43.000    21767380.918
 103215382.064 5  80278596.223 7  19295030.375    19295021.559          36.000
        46.000    19295028.758
 122449596.087 5  95238536.999 5  22922815.922    22922805.465          38.000
        36.000    22922814.656
 124934943.018 5  97171571.445 5  23437475.398    23437467.520          39.000
        36.000    23437474.836
 20  7  1 12  0 60.0000000  0 18G 1G22G 9G 8G16G 7G 3G31G 4R18R 5R20
                                G17G11R15R19R16R14
 107643388.514 7  83878022.113 8  20483880.362    20483872.638          49.000
        55.000  
 119465863.496 6  93090162.72244  22733583.221    22733571.675          43.000
        31.000  
 117401864.210 6  91482025.673 7  22340857.751    22340850.618          45.000
        50.000  
 119767355.555 6  93325230.867 7  22790985.256    22790979.301          42.000
        50.000  
 131536894.647 5 102496383.81041  25030673.719    25030664.766          38.000
        17.000  
 129729226.152 6 101087693.077 5  24686658.072    24686648.249          41.000
        38.000  
 121640979.735 6  94785042.059 7  23147483.851    23147477.706          41.000
        50.000  
 130696667.738 5 101841562.406 5  24870762.889    24870753.692          40.000
        39.000  
 110531035.261 7  86128045.432 8  21033358.503    21033348.200          47.000
        55.000  
 116320850.198 6  90471730.522 6  21790812.477    21790802.957          43.000
        41.000    21790811.680
 119118366.579 6  92647561.452 6  22283552.289    22283545.703          41.000
        43.000    22283551.492
 114775976.683 5  89270168.984 6  21463684.305    21463677.016          36.000
        45.000    21463682.688
 128409884.557 4 100059647.146 5  24435596.828    24435588.582          33.000
        40.000  
 108346550.070 7  84425873.52145  20617672.173    20617662.048          46.000
        38.000  
 116294781.493 6  90451366.016 6  21762961.688    21762954.750          45.000
        43.000    21762962.301
 103231109.914 5  80290828.994 7  19297970.250    19297962.254          37.000
        46.000    19297969.805
 122406583.642 5  95205082.823 5  22914764.141    22914753.328          38.000
        36.000    22914763.578
 124945844.292 5  97180050.219 5  23439521.297    23439513.891          40.000
        37.000    23439520.148
 20  7  1 12  1 15.0000000  0 18G 1G22G 9G 8G16G 7G 3G31G 4R18R 5R20
                                G17G11R15R19R16R14
 107620646.593 7  83860301.134 8  20479552.745    20479545.373          48.000
        55.000  
 119459065.759 6  93084865.77544  22732291.057    22732278.222          45.000
        32.000  
 117388610.719 6  91471698.275 7  22338335.696    22338327.743          45.000
        50.000  
 119809702.601 6  93358228.546 7  22799044.444    22799037.727          42.000
        50.000  
 131537145.652 5 102496579.36941  25030721.828    25030712.875          37.000
        18.000  
 129675718.379 5 101045998.733 5  24676475.345    24676466.050          40.000
        38.000  
 121632070.458 5  94778099.757 7  23145787.719    23145782.042          40.000
        50.000  
 130734046.557 5 101870688.756 5  24877876.499    24877866.598          40.000
        38.000  
 110544377.600 7  86138442.056 8  21035896.542    21035887.646          46.000
        55.000  
 116380250.726 6  90517930.900 6  21801940.781    21801931.262          44.000
        42.000    21801939.984
 119139882.440 5  92664296.016 6  22287576.664    22287569.258          40.000
        43.000    22287575.516
 114727760.913 5  89232667.815 6  21454667.711    21454660.539          36.000
        45.000    21454665.273
 128381008.189 4 100037146.073 5  24430102.797    24430093.555          34.000
        40.000  
 108361216.514 7  84437301.90845  20620464.235    20620452.880          46.000
        39.000  
 116271242.355 7  90433057.800 6  21758557.383    21758549.035          46.000
        43.000    21758556.938
 103247033.260 5  80303213.782 7  19300947.727    19300938.559          36.000
        46.000    19300945.641
 122363529.064 5  95171595.984 5  22906704.031    22906694.277          38.000
        37.000    22906703.117
 124956869.667 5  97188625.487 5  23441587.250    23441582.305          37.000
        38.000    23441587.629
 20  7  1 12  1 30.0000000  0 19G 1G22G 9G 8G16G 7G 3G31G 4R18R 5R20
                                R 4G17G11R15R19R16R14
 107598019.634 7  83842669.736 8  20475246.762    20475239.974          49.000
        55.000  
 119452254.971 6  93079558.66944  22730993.659    22730982.171          44.000
        31.000  
 117375455.641 6  91461447.552 7  22335832.501    22335824.489          45.000
        50.000  
 119852050.015 6  93391226.501 7  22807102.490    22807095.950          42.000
        50.000  
 131537356.365 5 102496743.57741  25030760.852    25030752.484          37.000
        16.000  
 129622189.686 6 101004288.081 5  24666289.986    24666279.812          42.000
        38.000  
 121623119.905 6  94771125.309 7  23144085.398    23144079.077          41.000
        50.000  
 130771495.858 6 101899870.015 5  24885002.702    24884992.626          42.000
        38.000  
 110557808.626 7  86148907.774 8  21038452.625    21038443.852          46.000
        55.000  
 116439720.999 6  90564185.557 6  21813082.633    21813072.293          44.000
        42.000    21813081.133
 119161371.018 6  92681009.413 6  22291597.398    22291589.520          42.000
        42.000    22291597.777
 114679674.343 5  89195267.160 6  21445674.289    21445667.820          37.000
        45.000    21445674.316
 127597267.276 4  99242267.09814  23827884.516    23827878.984          34.000
        32.000    23827883.602
 128352233.270 4 100014724.064 5  24424626.813    24424616.516          32.000
        40.000  
 108376001.496 6  84448822.67745  20623277.282    20623266.747          44.000
        38.000  
 116247775.692 7  90414805.917 6  21754165.586    21754158.063          46.000
        44.000    21754165.613
 103263152.799 5  80315751.198 7  19303959.961    19303951.730          36.000
        46.000    19303958.695
 122320433.796 5  95138077.426 5  22898635.453    22898628.516          36.000
        38.000    22898635.832
 124968019.932 5  97197297.946 5  23443680.820    23443675.055          39.000
        39.000    23443680.141
 20  7  1 12  1 45.0000000  0 19G 1G22G 9G 8G16G 7G 3G31G 4R18R 5R20
                                R 4G17G11R15R19R16R14
 107575508.755 7  83825128.789 8  20470963.417    20470955.869          49.000
        55.000  
 119445432.187 6  93074242.21344  22729695.839    22729683.765          43.000
        31.000  
 117362399.742 6  91451274.108 7  22333347.767    22333339.286          45.000
        50.000  
 119894398.209 6  93424225.069 7  22815161.217    22815155.086          42.000
        50.000  
 131537527.901 5 102496877.20141  25030793.117    25030785.395          36.000
        16.000  
 129568641.110 5 100962561.939 5  24656099.150    24656089.621          40.000
        37.000  
 121614128.990 6  94764119.395 7  23142374.515    23142367.842          41.000
        50.000  
 130809015.943 6 101929106.407 5  24892142.663    24892132.586          41.000
        38.000  
 110571328.915 7  86159443.058 8  21041025.297    21041016.465          47.000
        55.000  
 116499261.583 6  90610494.885 6  21824235.977    21824226.926          45.000
        42.000    21824235.531
 119182832.984 6  92697702.006 6  22295612.164    22295604.520          42.000
        41.000    22295611.840
 114631718.180 5  89157967.923 6  21436704.711    21436699.766          36.000
        45.000    21436704.621
 127622408.837 4  99261821.676 4  23832579.211    23832572.156          33.000
        32.000    23832578.887
 128323561.255 4  99992382.188 5  24419170.078    24419160.367          31.000
        40.000  
 108390905.536 7  84460436.21645  20626113.321    20626102.142          47.000
        38.000  
 116224382.734 7  90396611.412 6  21749788.313    21749780.434          46.000
        44.000    21749788.340
 103279468.733 5  80328441.386 7  19307011.523    19307002.355          36.000
        46.000    19307009.789
 122277299.070 5  95104528.233 5  22890560.703    22890553.414          36.000
        38.000    22890560.496
 124979296.160 5  97206068.345 5  23445793.250    23445789.246          37.000
        38.000    23445793.160
 20  7  1 12  1 60.0000000  0 19G 1G22G 9G 8G16G 7G 3G31G 4R18R 5R20
                                R 4G17G11R15R19R16R14
 107553116.710 7  83807680.439 8  20466702.207    20466695.361          49.000
        55.000  
 119438599.951 6  93068918.38544  22728395.706    22728383.691          45.000
        32.000  
 117349445.315 7  91441179.734 7  22330883.126    22330875.231          46.000
        50.000  
 119936749.218 6  93457225.842 7  22823221.178    22823214.344          43.000
        50.000  
 131537662.974 5 102496982.48641  25030820.000    25030811.164          36.000
        16.000  
 129515075.362 6 100920822.414 5  24645905.970    24645896.031          41.000
        36.000  
 121605100.206 6  94757083.976 7  23140656.890    23140649.690          42.000
        50.000  
 130846609.077 6 101958399.717 5  24899296.500    24899286.668          41.000
        38.000  
 110584940.596 6  86170049.546 8  21043615.656    21043606.824          45.000
        55.000  
 116558874.085 6  90656860.166 6  21835403.211    21835394.746          44.000
        43.000    21835402.180
 119204270.504 6  92714375.626 6  22299622.938    22299615.059          42.000
        42.000    22299622.375
 114583895.373 5  89120772.404 7  21427764.258    21427757.438          37.000
        46.000    21427762.992
 127647475.183 4  99281317.705 4  23837260.852    23837254.734          32.000
        34.000    23837261.230
 128294994.67913  99970122.43215  24413731.297    24413723.461          27.000
        40.000  
 108405930.989 6  84472144.37045  20628973.165    20628961.692          44.000
        38.000  
 116201066.443 6  90378476.502 6  21745424.641    21745416.645          44.000
        43.000    21745424.195
 103295983.719 4  80341286.360 7  19310098.734    19310089.918          35.000
        46.000    19310096.648
 122234127.709 4  95070950.503 5  22882480.484    22882470.965          35.000
        37.000    22882479.453
 124990700.762 5  97214938.614 5  23447936.406    23447926.887          40.000
        37.000    23447936.082
 20  7  1 12  2 15.0000000  0 19G 1G22G 9G 8G16G 7G 3G31G 4R18R 5R20
                                R 4G17G11R15R19R16R14
 107530835.564 7  83790318.505 8  20462461.926    20462455.197          49.000
        55.000  
 119431750.085 6  93063580.82244  22727092.425    22727080.175          44.000
        31.000  
 117336584.076 6  91431157.967 7  22328435.899    22328427.419          45.000
        50.000  
 119979094.377 6  93490222.068 7  22831278.522    22831271.453          42.000
        50.000  
 131537753.489 5 102497052.9974   25030837.953    25030828.414          37.000
        14.000  
 129461484.530 6 100879063.329 5  24635708.603    24635697.902          41.000
        37.000  
 121596025.349 6  94750012.644 7  23138929.898    23138923.987          42.000
        50.000  
 130884266.751 6 101987743.346 5  24906462.844    24906453.188          42.000
        39.000  
 110598635.149 6  86180720.607 8  21046221.641    21046212.457          44.000
        55.000  
 116618549.811 7  90703274.613 6  21846582.211    21846574.566          46.000
        44.000    21846581.648
 119225674.771 6  92731023.358 6  22303624.375    22303619.547          41.000
        42.000    22303624.402
 114536198.166 5  89083674.587 7  21418843.266    21418839.145          37.000
        46.000    21418843.176
 127672457.573 4  99300748.553 4  23841925.313    23841918.141          33.000
        34.000    23841926.043
 128266525.319 4  99947938.466 5  24408317.047    24408307.160          31.000
        40.000  
 108421069.473 6  84483940.59345  20631853.415    20631842.528          44.000
        38.000  
 116177818.969 6  90360395.139 6  21741073.391    21741066.688          44.000
        44.000    21741073.535
 103312688.894 5  80354279.266 7  19313220.023    19313211.910          36.000
        46.000    19313219.227
 122190911.765 4  95037338.112 5  22874388.430    22874380.551          35.000
        37.000    22874388.809
 125002225.653 5  97223902.372 4  23450099.258    23450087.859          38.000
        35.000    23450098.578
 20  7  1 12  2 30.0000000  0 19G 1G22G 9G 8G16G 7G 3G31G 4R18R 5R20
                                R 4G17G11R15R19R16R14
 107508673.170 7  83773049.109 8  20458245.012    20458237.638          49.000
        55.000  
 119424890.309 6  93058235.51144  22725786.620    22725774.429          44.000
        31.000  
 117323823.425 6  91421214.592 7  22326007.173    22325999.278          45.000
        50.000  
 120021440.859 6  93523219.297 7  22839336.865    22839329.973          43.000
        50.000  
 131537807.218 4 102497094.78141  25030846.867    25030838.500          35.000
        17.000  
 129407876.453 6 100837290.829 5  24625506.759    24625496.996          41.000
        36.000  
 121586911.993 6  94742911.334 7  23137195.508    23137188.366          42.000
        50.000  
 130921996.393 6 102017143.049 5  24913642.266    24913633.137          41.000
        38.000  
 110612419.849 6  86191461.920 8  21048844.711    21048835.879          44.000
        55.000  
 116678295.853 6  90749743.755 6  21857774.461    21857766.348          44.000
        44.000    21857774.137
 119247053.086 6  92747650.953 6  22307624.391    22307618.156          43.000
        41.000    22307624.418
 114488634.686 5  89046680.755 7  21409948.586    21409944.699          37.000
        46.000    21409948.379
 127697364.020 4  99320120.201 5  23846578.055    23846570.648          35.000
        36.000    23846576.789
 128238160.889 4  99925836.298 6  24402920.063    24402910.410          33.000
        45.000  
 108436328.421 6  84495830.67345  20634756.696    20634746.221          45.000
        38.000  
 116154648.482 7  90342373.652 6  21736738.141    21736731.555          46.000
        44.000    21736737.816
 103329591.819 4  80367426.010 7  19316381.266    19316372.215          35.000
        46.000    19316379.297
 122147659.100 4  95003697.160 5  22866291.094    22866284.273          35.000
        37.000    22866291.121
 125013878.497 5  97232965.674 4  23452284.750    23452272.414          38.000
        34.000    23452284.426
 20  7  1 12  2 45.0000000  0 20G 1G22G 9G 8G16G 7G 3G31G 4R 6R18R 5
                                R20R 4G17G11R15R19R16R14
 107486628.185 7  83755871.189 8  20454049.730    20454042.943          49.000
        55.000  
 119418019.199 6  93052881.38243  22724479.581    22724467.097          45.000
        30.000  
 117311161.585 6  91411348.243 7  22323597.759    22323589.103          45.000
        50.000  
 120063786.788 6  93556216.096 7  22847395.904    22847388.250          43.000
        50.000  
 131537822.676 5 102497106.82041  25030848.891    25030841.227          36.000
        16.000  
 129354249.775 6 100795503.817 5  24615302.368    24615292.136          41.000
        37.000  
 121577758.567 6  94735778.767 7  23135454.187    23135446.870          42.000
        50.000  
 130959796.187 5 102046597.438 5  24920835.633    24920826.035          39.000
        37.000  
 110626292.656 6  86202271.895 8  21051484.563    21051475.848          44.000
        55.000  
 125175275.05514                  23457791.680                          31.000
                  23457791.707
 116738109.910 6  90796265.753 6  21868980.391    21868971.105          45.000
        43.000    21868979.594
 119268403.572 6  92764256.884 5  22311619.398    22311610.582          44.000
        39.000    22311619.191
 114441203.533 5  89009789.889 7  21401079.328    21401073.797          37.000
        46.000    21401078.766
 127722192.388 4  99339431.179 4  23851214.102    23851204.699          35.000
        34.000    23851213.422
 128209899.625 4  99903814.548 5  24397540.242    24397532.055          31.000
        40.000  
 108451705.948 6  84507813.15945  20637683.103    20637672.744          44.000
        39.000  
 116131553.531 6  90324410.921 6  21732416.109    21732409.172          45.000
        44.000    21732416.020
 103346690.384 5  80380724.864 7  19319576.961    19319567.793          36.000
        46.000    19319575.344
 122104368.574 4  94970026.750 5  22858189.313    22858178.031          34.000
        36.000    22858187.461
 125025657.712 5  97242127.301 5  23454496.016    23454483.445          40.000
        36.000    23454494.750
 20  7  1 12  2 60.0000000  0 20G 1G22G 9G 8G16G 7G 3G31G 4R 6R18R 5
                                R20R 4G17G11R15R19R16R14
 107464700.329 7  83738784.547 8  20449877.449    20449869.783          49.000
        55.000  
 119411136.299 6  93047518.06844  22723169.464    22723157.624          45.000
        32.000  
 117298597.876 6  91401558.304 7  22321206.907    22321198.427          45.000
        50.000  
 120106131.354 6  93589211.866 7  22855452.123    22855446.227          43.000
        50.000  
 131537799.547 5 102497088.81641  25030845.570    25030837.379          36.000
        17.000  
 129300604.157 6 100753702.031 5  24605094.001    24605083.066          43.000
        37.000  
 121568564.512 6  94728614.558 7  23133704.601    23133697.577          43.000
        50.000  
 130997665.401 5 102076105.930 5  24928042.609    24928031.898          39.000
        38.000  
 110640252.759 6  86213149.895 8  21054140.578    21054132.918          44.000
        55.000  
 125175889.677 4                  23457904.891                          31.000
                  23457904.918
 116797990.948 6  90842839.892 6  21880197.898    21880188.730          44.000
        43.000    21880196.984
 119289725.169 6  92780840.337 5  22315608.133    22315599.199          44.000
        39.000    22315607.688
 114393904.648 5  88973001.925 6  21392234.297    21392228.063          37.000
        45.000    21392233.734
 127746942.360 5  99358681.156 5  23855835.828    23855829.008          36.000
        36.000    23855834.094
 128181741.074 4  99881872.804 4  24392182.844    24392174.770          35.000
        34.000  
 108467201.364 6  84519887.50545  20640631.790    20640621.373          44.000
        39.000  
 116108534.216 6  90306506.999 6  21728108.039    21728099.105          45.000
        43.000    21728107.832
 103363983.849 5  80394175.322 7  19322810.266    19322801.449          36.000
        46.000    19322808.297
 122061039.819 4  94936326.588 5  22850077.430    22850069.316          33.000
        37.000    22850077.926
 125037562.967 5  97251386.920 5  23456727.836    23456717.496          40.000
        36.000    23456728.566
 20  7  1 12  3 15.0000000  0 20G 1G22G 9G 8G16G 7G 3G31G 4R 6R18R 5
                                R20R 4G17G11R15R19R16R14
 107442889.739 7  83721789.279 8  20445726.574    20445719.494          49.000
        55.000  
 119404241.566 7  93042145.52744  22721858.846    22721845.191          46.000
        33.000  
 117286132.087 6  91391844.702 7  22318834.595    22318826.349          45.000
        50.000  
 120148473.923 6  93622206.074 7  22863510.842    22863503.071          44.000
        50.000  
 131537737.763 5 102497040.64841  25030833.000    25030825.922          36.000
        16.000  
 129246939.756 6 100711885.613 5  24594881.181    24594871.652          43.000
        37.000  
 121559329.701 6  94721418.602 7  23131946.726    23131940.171          43.000
        50.000  
 131035603.543 5 102105668.125 5  24935261.016    24935251.359          38.000
        37.000  
 110654299.699 7  86224095.561 8  21056813.867    21056805.211          46.000
        55.000  
 125176548.466 4                  23458030.125                          32.000
                  23458029.211
 116857937.895 6  90889465.287 6  21891427.539    21891419.543          42.000
        44.000    21891426.742
 119311017.557 6  92797401.121 5  22319590.797    22319582.215          44.000
        38.000    22319590.352
 114346738.381 5  88936317.016 6  21383413.703    21383407.820          37.000
        45.000    21383413.496
 127771613.456 4  99377869.729 4  23860442.047    23860434.051          35.000
        34.000    23860441.723
 128153685.346 5  99860011.144 4  24386845.305    24386835.590          36.000
        35.000  
 108482814.304 7  84532053.42745  20643603.290    20643592.697          46.000
        38.000  
 116085590.843 7  90288662.156 6  21723815.664    21723806.145          46.000
        43.000    21723814.984
 103381471.569 4  80407776.913 7  19326079.703    19326069.949          35.000
        46.000    19326077.383
 122017672.923 4  94902596.798 5  22841960.289    22841950.652          35.000
        37.000    22841958.789
 125049593.879 5  97260744.286 5  23458985.375    23458977.496          40.000
        38.000    23458985.637
 20  7  1 12  3 30.0000000  0 20G 1G22G 9G 8G16G 7G 3G31G 4R 6R18R 5
                                R20R 4G17G11R15R19R16R14
 107421197.401 7  83704886.166 8  20441598.918    20441591.310          50.000
        55.000  
 119397335.747 7  93036764.36244  22720544.112    22720531.101          46.000
        32.000  
 117273764.771 7  91382207.821 7  22316481.321    22316472.958          46.000
        50.000  
 120190814.672 6  93655198.852 6  22871567.467    22871559.930          43.000
        45.000  
 131537638.162 4                  25030813.842                          34.000
                
 129193257.635 6 100670055.385 5  24584666.165    24584656.226          43.000
        37.000  
 121550054.925 6  94714191.500 7  23130181.758    23130175.436          43.000
        50.000  
 131073610.958 5 102135284.329 5  24942492.953    24942484.059          37.000
        36.000  
 110668433.875 7  86235109.189 8  21059503.531    21059494.875          46.000
        55.000  
 125177251.211 4                  23458161.352                          32.000
                  23458160.320
 116917951.382 6  90936142.408 6  21902670.633    21902662.285          43.000
        44.000    21902669.016
 119332281.117 6  92813939.376 5  22323568.961    22323560.496          44.000
        39.000    22323568.398
 114299705.942 5  88899736.236 6  21374619.367    21374612.898          37.000
        45.000    21374618.336
 127796206.393 4  99396997.595 5  23865033.961    23865028.195          31.000
        36.000    23865032.930
 128125733.123 5  99838230.180 5  24381525.898    24381516.242          37.000
        37.000  
 108498545.342 7  84544311.37545  20646596.774    20646585.772          46.000
        38.000  
 116062724.414 7  90270877.135 6  21719536.711    21719526.957          46.000
        44.000    21719535.563
 103399154.167 5  80421530.036 7  19329385.078    19329375.559          36.000
        46.000    19329383.344
 121974269.145 4  94868838.319 5  22833835.539    22833824.844          35.000
        39.000    22833833.570
 125061751.542 5  97270200.253 5  23461265.242    23461258.422          40.000
        39.000    23461265.621
 20  7  1 12  3 45.0000000  0 20G 1G22G 9G 8G16G 7G 3G31G 4R 6R18R 5
                                R20R 4G17G11R15R19R16R14
 107399623.370 7  83688075.238 8  20437493.199    20437486.353          49.000
        55.000  
 119390418.829 6  93031374.54044  22719228.182    22719215.464          45.000
        31.000  
 117261495.573 7  91372647.395 7  22314146.642    22314139.333          46.000
        50.000  
 120233153.065 6  93688189.794 7  22879623.858    22879617.785          43.000
        50.000  
 131537500.535 4                  25030787.420                          35.000
                
 129139557.769 6 100628211.325 5  24574448.454    24574437.519          44.000
        38.000  
 121540739.947 6  94706933.071 7  23128409.351    23128402.268          43.000
        50.000  
 131111687.284 4 102164954.202 5  24949738.969    24949729.723          35.000
        36.000  
 110682654.732 7  86246190.366 8  21062209.328    21062200.965          46.000
        55.000  
 125177997.213 4                  23458302.281                          33.000
                  23458301.250
 116978030.279 6  90982870.393 6  21913926.039    21913915.699          42.000
        44.000    21913924.422
 119353515.129 6  92830454.671 5  22327541.320    22327533.914          44.000
        40.000    22327540.758
 114252807.340 5  88863259.564 6  21365847.930    21365842.164          36.000
        45.000    21365847.723
 127820720.898 4  99416064.376 5  23869611.789    23869607.195          33.000
        38.000    23869612.754
 128097884.180 5  99816529.710 5  24376225.558    24376216.715          36.000
        37.000  
 108514394.031 7  84556661.00545  20649612.610    20649601.432          47.000
        38.000  
 116039935.249 7  90253152.278 6  21715270.758    21715262.762          46.000
        43.000    21715270.902
 103417031.175 4  80435434.360 7  19332726.289    19332718.176          35.000
        46.000    19332725.258
 121930828.370 4  94835051.051 5  22825701.609    22825693.145          34.000
        39.000    22825700.578
 125074035.799 5  97279754.649 5  23463566.945    23463561.766          37.000
        37.000    23463566.855
 20  7  1 12  3 60.0000000  0 20G 1G22G 9G 8G16G 7G 3G31G 4R 6R18R 5
                                R20R 4G17G11R15R19R16R14
 107378167.793 7  83671356.589 8  20433410.574    20433403.201          49.000
        55.000  
 119383490.734 6  93025976.00044  22717909.089    22717896.781          44.000
        31.000  
 117249324.179 6  91363163.193 7  22311830.165    22311822.564          45.000
        50.000  
 120275488.801 6  93721178.671 7  22887680.342    22887673.450          43.000
        50.000  
 131537325.286 5                  25030754.975                          36.000
                
 129085840.149 6 100586353.446 5  24564225.509    24564215.453          44.000
        39.000  
 121531384.651 6  94699643.212 7  23126629.242    23126623.155          43.000
        50.000  
 131149832.16213 102194677.44814  24956996.180    24956988.105          30.000
        35.000  
 110696961.757 7  86257338.689 8  21064931.813    21064923.801          46.000
        55.000  
 125178786.495 4                  23458448.453                          33.000
                  23458448.363
 117038173.893 6  91029648.761 6  21925190.664    21925182.902          43.000
        43.000    21925190.809
 119374719.270 6  92846946.785 6  22331508.188    22331501.602          43.000
        42.000    22331507.980
 114206042.969 5  88826887.305 6  21357104.391    21357097.219          37.000
        45.000    21357102.305
 127845156.692 4  99435070.023 5  23874175.438    23874171.316          33.000
        38.000    23874174.172
 128070138.276 5  99794909.554 5  24370945.745    24370936.785          37.000
        37.000  
 108530359.923 7  84569101.95845  20652651.329    20652639.447          48.000
        38.000  
 116017223.613 6  90235487.637 6  21711020.102    21711011.871          44.000
        43.000    21711019.656
 103435102.063 4  80449489.487 7  19336104.305    19336096.074          35.000
        46.000    19336103.391
 121887350.898 4  94801235.265 5  22817562.617    22817553.566          35.000
        39.000    22817561.117
 125086446.309 5  97289407.320 5  23465898.867    23465888.293          40.000
        37.000    23465899.480
 20  7  1 12  4 15.0000000  0 20G 1G22G 9G 8G16G 7G 3G31G 4R 6R18R 5
                                R20R 4G17G11R15R19R16R14
 107356831.336 7  83654730.766 8  20429350.176    20429343.038          49.000
        55.000  
 119376552.018 6  93020569.19644  22716589.073    22716576.648          45.000
        31.000  
 117237250.888 6  91353755.429 7  22309532.149    22309524.255          45.000
        50.000  
 120317821.930 6  93754165.522 7  22895735.928    22895729.504          43.000
        50.000  
 131537112.743 5                  25030715.006                          36.000
                
 129032105.542 6 100544482.318 5  24554000.126    24553990.480          42.000
        38.000  
 121521989.497 6  94692322.323 7  23124842.211    23124835.069          44.000
        50.000  
 131188045.75713 102224454.16914  24964267.125    24964259.578          30.000
        34.000  
 110711355.083 7  86268554.261 8  21067670.664    21067662.828          46.000
        55.000  
 125179618.842 4                  23458605.172                          32.000
                  23458603.789
 117098381.985 6  91076477.230 6  21936469.555    21936462.617          42.000
        43.000    21936469.699
 119395893.459 6  92863415.568 6  22335469.680    22335461.332          45.000
        42.000    22335469.117
 114159413.642 5  88790620.083 6  21348383.336    21348376.750          37.000
        45.000    21348382.305
 127869514.159 4  99454014.644 5  23878725.281    23878721.277          34.000
        37.000    23878724.719
 128042496.452 5  99773370.443 5  24365685.261    24365676.945          37.000
        37.000  
 108546443.420 7  84581634.55245  20655711.204    20655700.025          47.000
        38.000  
 115994590.253 6  90217883.938 6  21706785.328    21706776.277          45.000
        43.000    21706784.648
 103453366.847 5  80463695.434 7  19339519.211    19339511.098          36.000
        46.000    19339517.828
 121843837.828 4  94767391.774 5  22809414.891    22809408.188          35.000
        38.000    22809415.621
 125098983.906 5  97299158.828 5  23468250.156    23468240.754          39.000
        36.000    23468251.004
 20  7  1 12  4 30.0000000  0 20G 1G22G 9G 8G16G 7G 3G31G 4R 6R18R 5
                                R20R 4G17G11R15R19R16R14
 107335613.938 7  83638197.719 8  20425313.262    20425306.007          49.000
        55.000  
 119369602.498 6  93015153.98043  22715266.612    22715253.894          45.000
        30.000  
 117225275.231 6  91344423.754 7  22307253.540    22307245.763          45.000
        50.000  
 120360151.661 6  93787149.725 7  22903791.545    22903785.473          43.000
        50.000  
 131536862.740 4                  25030666.858                          34.000
                
 128978353.870 6 100502597.886 5  24543771.525    24543761.937          42.000
        38.000  
 121512554.205 6  94684970.142 7  23123046.492    23123040.405          44.000
        50.000  
 131226327.462 3 102254284.011 4  24971553.930    24971544.566          30.000
        35.000  
 110725834.066 7  86279836.567 8  21070426.859    21070417.617          47.000
        55.000  
 125180493.515 3                  23458769.258                          29.000
                  23458767.641
 117158653.733 6  91123355.250 6  21947761.352    21947752.184          43.000
        42.000    21947761.262
 119417037.154 6  92879860.632 6  22339426.563    22339418.566          44.000
        43.000    22339426.238
 114112919.711 5  88754458.084 6  21339688.758    21339683.344          37.000
        45.000    21339688.434
 127893792.974 4  99472898.158 5  23883258.039    23883252.273          34.000
        36.000    23883258.418
 128014958.298 5  99751912.092 5  24360445.018    24360435.941          37.000
        37.000  
 108562643.958 7  84594258.35045  20658794.446    20658782.975          46.000
        38.000  
 115972035.408 6  90200341.272 6  21702565.141    21702556.207          44.000
        43.000    21702563.758
 103471825.120 5  80478051.845 7  19342970.328    19342960.691          36.000
        46.000    19342968.945
 121800288.659 5  94733520.227 5  22801263.180    22801254.715          37.000
        38.000    22801263.793
 125111647.999 5  97309008.672 5  23470627.375    23470619.852          40.000
        38.000    23470625.641
 20  7  1 12  4 45.0000000  0 20G 1G22G 9G 8G16G 7G 3G31G 4R 6R18R 5
                                R20R 4G17G11R15R19R16R14
 107314515.881 7  83621757.670 8  20421297.918    20421291.307          49.000
        55.000  
 119362642.251 6  93009730.39743  22713941.198    22713929.124          44.000
        30.000  
 117213397.076 6  91335168.020 7  22304993.571    22304985.149          45.000
        50.000  
 120402477.526 6  93820130.924 7  22911845.873    22911839.625          44.000
        50.000  
 131536575.471 5                  25030613.529                          36.000
                
 128924585.485 6 100460700.451 5  24533539.204    24533530.671          41.000
        39.000  
 121503078.755 6  94677586.630 7  23121243.617    23121237.003          44.000
        50.000  
 131264676.959 4 102284166.659 4  24978851.844    24978842.129          34.000
        34.000  
 110740398.319 7  86291185.319 8  21073198.070    21073189.297          46.000
        55.000  
 125181410.01513                  23458939.945                          27.000
                  23458938.797
 117218988.540 6  91170282.298 6  21959065.109    21959054.652          44.000
        41.000    21959063.609
 119438149.824 6  92896281.606 6  22343376.164    22343365.469          44.000
        41.000    22343375.602
 114066561.154 5  88718401.465 6  21331018.820    21331012.703          36.000
        45.000    21331018.141
 127917992.765 5  99491720.202 4  23887777.813    23887771.695          36.000
        35.000    23887777.133
 127987523.668 5  99730534.435 5  24355225.159    24355216.258          37.000
        37.000  
 108578961.191 7  84606973.08145  20661899.454    20661888.275          46.000
        38.000  
 115949559.403 7  90182859.941 6  21698358.891    21698349.605          46.000
        43.000    21698358.328
 103490476.200 5  80492558.273 7  19346457.047    19346447.645          36.000
        46.000    19346455.195
 121756703.880 5  94699620.941 5  22793104.867    22793096.051          36.000
        38.000    22793103.602
 125124438.886 5  97318957.098 5  23473024.875    23473018.055          40.000
        37.000    23473025.605
 20  7  1 12  4 60.0000000  0 19G 1G22G 9G 8G16G 7G 3G31G 4R18R 5R20
                                R 4G17G11R15R19R16R14
 107293537.233 7  83605410.665 8  20417305.762    20417299.034          49.000
        55.000  
 119355671.245 6  93004298.43243  22712614.589    22712603.160          44.000
        30.000  
 117201616.064 6  91325988.018 7  22302751.454    22302744.087          45.000
        50.000  
 120444799.010 6  93853108.692 7  22919900.037    22919892.910          44.000
        50.000  
 131536250.962 5                  25030551.615                          38.000
                
 128870800.447 6 100418790.035 5  24523304.634    24523295.457          41.000
        39.000  
 121493562.966 6  94670171.739 7  23119432.859    23119425.659          44.000
        50.000  
 131303093.870 5 102314101.890 4  24986163.445    24986152.617          37.000
        35.000  
 110755047.396 7  86302600.172 8  21075986.086    21075976.844          48.000
        55.000  
 117279385.515 6  91217257.718 6  21970379.938    21970370.301          44.000
        42.000    21970378.555
 119459231.086 6  92912678.101 6  22347318.695    22347309.996          43.000
        42.000    22347318.605
 114020338.448 4  88682450.462 7  21322374.688    21322369.273          35.000
        46.000    21322373.891
 127942113.481 5  99510480.735 5  23892283.008    23892277.359          37.000
        36.000    23892282.684
 127960192.500 5  99709237.397 5  24350022.847    24350015.176          36.000
        37.000  
 108595394.860 7  84619778.53245  20665026.165    20665015.748          47.000
        39.000  
 115927162.503 7  90165440.130 6  21694167.188    21694160.016          46.000
        44.000    21694166.625
 103509319.893 4  80507214.445 7  19349978.313    19349969.613          35.000
        46.000    19349977.633
 121713083.934 5  94665694.319 5  22784938.891    22784930.543          37.000
        38.000    22784938.211
 125137356.250 5  97329003.923 5  23475448.828    23475442.945          40.000
        37.000    23475449.324
 20  7  1 12  5 15.0000000  0 19G 1G22G 9G 8G16G 7G 3G31G 4R18R 5R20
                                R 4G17G11R15R19R16R14
 107272678.565 7  83589157.159 8  20413336.293    20413329.038          48.000
        55.000  
 119348689.879 6  92998858.37544  22711286.065    22711274.636          43.000
        31.000  
 117189932.406 6  91316883.853 7  22300528.220    22300521.556          45.000
        50.000  
 120487115.865 6  93886082.876 7  22927952.326    22927945.375          43.000
        50.000  
 131535889.612 5                  25030483.139                          38.000
                
 128816999.166 6 100376866.947 5  24513066.345    24513057.285          41.000
        39.000  
 121484007.266 6  94662725.737 7  23117614.125    23117608.096          43.000
        50.000  
 131341578.212 5 102344089.671 4  24993486.375    24993476.367          37.000
        33.000  
 110769781.246 7  86314081.083 8  21078789.305    21078780.297          46.000
        55.000  
 117339844.505 6  91264281.363 6  21981705.563    21981695.457          45.000
        41.000    21981704.297
 119480280.885 6  92929050.143 6  22351256.852    22351248.152          43.000
        42.000    22351256.055
 113974252.458 4  88646605.861 6  21313755.922    21313751.094          35.000
        45.000    21313755.715
 127966155.363 5  99529180.048 4  23896771.484    23896763.371          37.000
        34.000    23896771.039
 127932965.122 5  99688021.213 5  24344842.159    24344834.195          36.000
        37.000  
 108611945.044 7  84632674.77645  20668175.931    20668165.338          47.000
        38.000  
 115904845.548 6  90148082.487 6  21689991.336    21689983.574          45.000
        43.000    21689990.891
 103528356.080 5  80522020.380 7  19353537.695    19353528.762          36.000
        46.000    19353536.195
 121669429.180 5  94631740.661 5  22776767.164    22776758.230          37.000
        37.000    22776765.313
 125150400.414 5  97339149.465 5  23477896.430    23477888.199          40.000
        37.000    23477895.516
 20  7  1 12  5 30.0000000  0 19G 1G22G 9G 8G16G 7G 3G31G 4R18R 5R20
                                R 4G17G11R15R19R16R14
 107251940.548 7  83572997.645 8  20409390.129    20409383.225          48.000
        55.000  
 119341698.676 6  92993410.67843  22709955.300    22709944.163          43.000
        30.000  
 117178346.312 7  91307855.719 7  22298324.329    22298315.790          46.000
        50.000  
 120529428.327 6  93919053.617 7  22936003.733    22935998.305          43.000
        50.000  
 131535491.890 5 102495285.16941  25030406.828    25030396.938          37.000
        17.000  
 128763182.308 5 100334931.736 5  24502825.384    24502816.324          40.000
        40.000  
 121474411.962 6  94655248.842 7  23115787.867    23115781.253          44.000
        50.000  
 131380130.039 5 102374130.056 4  25000823.633    25000812.512          40.000
        32.000  
 110784599.869 7  86325628.070 8  21081608.688    21081600.617          46.000
        55.000  
 117400365.212 6  91311353.034 6  21993042.602    21993033.434          45.000
        42.000    21993042.395
 119501299.170 6  92945397.713 6  22355187.867    22355179.988          43.000
        43.000    22355187.305
 113928303.785 4  88610867.962 6  21305164.180    21305158.180          35.000
        45.000    21305164.324
 127990118.649 5  99547818.005 5  23901247.273    23901242.797          37.000
        37.000    23901247.770
 127905842.000 5  99666886.335 5  24339681.292    24339672.859          36.000
        37.000  
 108628611.909 7  84645661.92945  20671347.993    20671336.815          47.000
        38.000  
 115882609.204 7  90130787.559 6  21685830.102    21685820.465          46.000
        42.000    21685828.602
 103547584.875 5  80536976.108 7  19357131.430    19357123.434          36.000
        46.000    19357130.867
 121625740.396 5  94597760.478 5  22768588.516    22768579.582          38.000
        37.000    22768587.367
 125163572.031 6  97349394.037 4  23480367.594    23480356.664          41.000
        35.000    23480366.914
 20  7  1 12  5 45.0000000  0 19G 1G22G 9G 8G16G 7G 3G31G 4R18R 5R20
                                R 4G17G11R15R19R16R14
 107231323.014 7  83556932.041 8  20405467.246    20405459.698          48.000
        55.000  
 119334697.338 6  92987955.07144  22708624.026    22708613.007          43.000
        31.000  
 117166857.234 6  91298903.176 7  22296137.501    22296129.606          45.000
        50.000  
 120571735.715 6  93952020.395 7  22944055.162    22944048.563          43.000
        50.000  
 131535057.664 5 102494946.71741  25030324.484    25030314.887          36.000
        18.000  
 128709349.828 5 100292984.348 5  24492581.368    24492571.664          40.000
        39.000  
 121464776.687 6  94647740.863 7  23113953.820    23113947.967          43.000
        50.000  
 131418748.688 5 102404222.538 4  25008171.320    25008161.605          39.000
        34.000  
 110799502.592 7  86337240.566 8  21084445.477    21084436.293          47.000
        55.000  
 117460946.872 6  91358472.112 6  22004392.688    22004382.934          45.000
        42.000    22004391.539
 119522285.320 6  92961720.248 6  22359112.508    22359107.680          43.000
        43.000    22359112.652
 113882492.470 4  88575236.965 6  21296598.594    21296591.891          35.000
        45.000    21296597.211
 128014002.905 4  99566394.650 5  23905706.797    23905701.500          35.000
        38.000    23905705.648
 127878822.582 5  99645832.233 5  24334541.159    24334530.910          39.000
        36.000  
 108645394.943 7  84658739.61845  20674541.790    20674530.553          48.000
        39.000  
 115860453.463 6  90113555.320 6  21681683.078    21681674.730          45.000
        43.000    21681682.633
 103567005.396 5  80552080.957 7  19360763.047    19360754.699          36.000
        46.000    19360761.430
 121582017.491 5  94563753.758 5  22760402.813    22760393.059          38.000
        36.000    22760402.250
 125176870.675 6  97359737.388 5  23482862.688    23482855.398          42.000
        38.000    23482863.066
 20  7  1 12  5 60.0000000  0 19G 1G22G 9G 8G16G 7G 3G31G 4R18R 5R20
                                R 4G17G11R15R19R16R14
 107210826.795 7  83540960.959 8  20401566.535    20401559.514          49.000
        55.000  
 119327686.682 6  92982492.22744  22707290.135    22707278.941          44.000
        31.000  
 117155465.574 6  91290026.539 7  22293969.203    22293961.954          45.000
        50.000  
 120614037.963 6  93984983.173 7  22952104.436    22952098.657          43.000
        50.000  
 131534587.448 5 102494580.35441  25030234.563    25030225.492          37.000
        17.000  
 128655502.517 6 100251025.393 5  24482335.259    24482324.851          42.000
        39.000  
 121455102.105 6  94640202.207 7  23112113.008    23112105.983          42.000
        50.000  
 131457434.644 5 102434367.415 4  25015532.000    25015523.281          39.000
        35.000  
 110814489.637 7  86348918.778 8  21087297.664    21087288.891          47.000
        55.000  
 117521589.126 6  91405638.298 6  22015751.406    22015743.645          43.000
        42.000    22015751.316
 119543239.619 6  92978018.027 6  22363033.531    22363026.594          43.000
        43.000    22363032.969
 113836819.323 4  88539713.435 6  21288056.195    21288050.664          35.000
        45.000    21288054.461
 128037808.574 4  99584910.217 5  23910152.539    23910147.242          35.000
        40.000    23910153.152
 127851907.768 5  99624859.620 4  24329417.808    24329408.379          38.000
        35.000  
 108662294.768 7  84671908.31745  20677756.774    20677746.065          47.000
        39.000  
 115838379.522 7  90096386.695 6  21677553.344    21677543.941          46.000
        43.000    21677552.898
 103586618.016 5  80567335.172 7  19364428.828    19364420.363          36.000
        46.000    19364426.977
 121538261.294 5  94529721.152 5  22752212.711    22752202.957          38.000
        36.000    22752210.977
 125190296.884 5  97370180.007 5  23485381.234    23485374.063          40.000
        36.000    23485380.555
 20  7  1 12  6 15.0000000  0 20G 1G22G 9G 8G16G 7G 3G31G 4R 6R18R 5
                                R20R 4G17G11R15R19R16R14
 107190451.966 7  83525084.468 8  20397689.051    20397681.679          49.000
        55.000  
 119320666.551 6  92977021.96644  22705953.846    22705942.300          45.000
        32.000  
 117144170.978 6  91281225.558 7  22291819.844    22291812.302          45.000
        50.000  
 120656334.639 6  94017941.605 7  22960153.420    22960147.055          43.000
        50.000  
 131534081.443 4 102494185.97141  25030136.883    25030129.688          34.000
        17.000  
 128601640.495 6 100209054.999 5  24472086.267    24472075.566          42.000
        39.000  
 121445388.043 6  94632632.802 7  23110265.109    23110257.557          43.000
        50.000  
 131496187.385 5 102464564.330 4  25022906.719    25022898.117          39.000
        35.000  
 110829560.475 7  86360662.278 8  21090164.898    21090156.945          47.000
        55.000  
 125187784.359 4                  23460135.680                          31.000
                  23460132.539
 117582291.451 6  91452851.187 6  22027123.797    22027114.395          43.000
