% program   : RTKLIB ver.2.4.2
% inp file  : /media/lape04/SAMSUNG/VERAO/UFPR/RINEX/ufpr0041corr2.20o
% inp file  : /media/lape04/SAMSUNG/VERAO/UFPR/RINEX/ufpr0041.20n
% inp file  : /media/lape04/SAMSUNG/VERAO/UFPR/RINEX/ufpr0041.20g
% inp file  : /media/lape04/SAMSUNG/VERAO/UFPR/efemerides/igs20866.sp3
% inp file  : /media/lape04/SAMSUNG/VERAO/UFPR/efemerides/igl20866.sp3
% inp file  : /media/lape04/SAMSUNG/VERAO/UFPR/relogios/grg20866.clk
% inp file  : /media/lape04/SAMSUNG/VERAO/UFPR/fixos/UFPR.blq
% inp file  : /media/lape04/SAMSUNG/VERAO/UFPR/fixos/sat.atx
% obs start : 2020/01/04 12:00:00.0 GPST (week2086 561600.0s)
% obs end   : 2020/01/04 14:00:00.0 GPST (week2086 568800.0s)
% pos mode  : ppp-kinematic
% solution  : combined
% elev mask : 10.0 deg
% dynamics  : off
% tidecorr  : on
% tropo opt : est ztd
% ephemeris : precise
% navi sys  : gps glonass
% antenna1  :                       (-0.0000 -0.0000  0.1000)
%
% (lat/lon/height=WGS84/ellipsoidal,Q=1:fix,2:float,3:sbas,4:dgps,5:single,6:ppp,ns=# of satellites)
%  GPST                    latitude(d'")   longitude(d'")  height(m)   Q  ns   sdn(m)   sde(m)   sdu(m)  sdne(m)  sdeu(m)  sdue(m) age(s)  ratio
2020/01/04 12:00:00.000  -25 26 54.11593  -49 13 51.44923   925.9064   6  14   0.0190   0.0258   0.0376  -0.0080  -0.0076  -0.0101   0.00    0.0
2020/01/04 12:00:15.000  -25 26 54.11601  -49 13 51.44932   925.9067   6  14   0.0220   0.0274   0.0428  -0.0059  -0.0122  -0.0096   0.00    0.0
2020/01/04 12:00:30.000  -25 26 54.11617  -49 13 51.44913   925.9077   6  14   0.0195   0.0253   0.0384  -0.0078  -0.0072  -0.0099   0.00    0.0
2020/01/04 12:00:45.000  -25 26 54.11625  -49 13 51.44922   925.9168   6  14   0.0220   0.0274   0.0429  -0.0072  -0.0118  -0.0095   0.00    0.0
2020/01/04 12:01:00.000  -25 26 54.11628  -49 13 51.44918   925.9136   6  14   0.0189   0.0255   0.0379  -0.0090  -0.0058  -0.0063   0.00    0.0
2020/01/04 12:01:15.000  -25 26 54.11612  -49 13 51.44903   925.9103   6  14   0.0220   0.0277   0.0427  -0.0093  -0.0119  -0.0109   0.00    0.0
2020/01/04 12:01:30.000  -25 26 54.11624  -49 13 51.44923   925.9105   6  14   0.0197   0.0258   0.0373  -0.0079  -0.0086  -0.0125   0.00    0.0
2020/01/04 12:01:45.000  -25 26 54.11612  -49 13 51.44947   925.9174   6  14   0.0215   0.0276   0.0431  -0.0052  -0.0113  -0.0095   0.00    0.0
2020/01/04 12:02:00.000  -25 26 54.11623  -49 13 51.44923   925.9090   6  14   0.0189   0.0260   0.0381  -0.0080  -0.0080  -0.0120   0.00    0.0
2020/01/04 12:02:15.000  -25 26 54.11606  -49 13 51.44920   925.8963   6  14   0.0217   0.0277   0.0426  -0.0067  -0.0114  -0.0096   0.00    0.0
2020/01/04 12:02:30.000  -25 26 54.11632  -49 13 51.44939   925.9229   6  14   0.0194   0.0245   0.0382  -0.0085  -0.0071  -0.0102   0.00    0.0
2020/01/04 12:02:45.000  -25 26 54.11635  -49 13 51.44927   925.9173   6  14   0.0219   0.0277   0.0431  -0.0069  -0.0123  -0.0103   0.00    0.0
2020/01/04 12:03:00.000  -25 26 54.11630  -49 13 51.44918   925.9116   6  14   0.0188   0.0254   0.0379  -0.0087  -0.0089  -0.0122   0.00    0.0
2020/01/04 12:03:15.000  -25 26 54.11639  -49 13 51.44911   925.8887   6  14   0.0219   0.0281   0.0428  -0.0067  -0.0103  -0.0099   0.00    0.0
2020/01/04 12:03:30.000  -25 26 54.11634  -49 13 51.44927   925.9189   6  14   0.0191   0.0250   0.0377  -0.0082  -0.0082  -0.0115   0.00    0.0
2020/01/04 12:03:45.000  -25 26 54.11635  -49 13 51.44942   925.9348   6  14   0.0219   0.0271   0.0428  -0.0050  -0.0118  -0.0097   0.00    0.0
2020/01/04 12:04:00.000  -25 26 54.11626  -49 13 51.44915   925.9226   6  14   0.0193   0.0256   0.0382  -0.0093  -0.0057  -0.0107   0.00    0.0
2020/01/04 12:04:15.000  -25 26 54.11659  -49 13 51.44898   925.9031   6  14   0.0219   0.0275   0.0432  -0.0062  -0.0109  -0.0100   0.00    0.0
2020/01/04 12:04:30.000  -25 26 54.11630  -49 13 51.44908   925.9134   6  14   0.0192   0.0258   0.0367  -0.0100  -0.0075  -0.0106   0.00    0.0
2020/01/04 12:04:45.000  -25 26 54.11653  -49 13 51.44915   925.9057   6  14   0.0221   0.0279   0.0429  -0.0072  -0.0108  -0.0116   0.00    0.0
2020/01/04 12:05:00.000  -25 26 54.11659  -49 13 51.44911   925.9350   6  14   0.0192   0.0258   0.0387  -0.0054  -0.0074  -0.0116   0.00    0.0
2020/01/04 12:05:15.000  -25 26 54.11616  -49 13 51.44932   925.9416   6  14   0.0221   0.0276   0.0426  -0.0079  -0.0117  -0.0123   0.00    0.0
2020/01/04 12:05:30.000  -25 26 54.11641  -49 13 51.44925   925.9352   6  14   0.0195   0.0256   0.0384  -0.0095  -0.0095  -0.0140   0.00    0.0
2020/01/04 12:05:45.000  -25 26 54.11657  -49 13 51.44945   925.9392   6  14   0.0235   0.0278   0.0446  -0.0074  -0.0121  -0.0157   0.00    0.0
2020/01/04 12:06:00.000  -25 26 54.11639  -49 13 51.44917   925.9362   6  13   0.0196   0.0260   0.0395  -0.0094  -0.0040  -0.0124   0.00    0.0
2020/01/04 12:06:15.000  -25 26 54.11663  -49 13 51.44923   925.9440   6  13   0.0237   0.0283   0.0451  -0.0056  -0.0125  -0.0160   0.00    0.0
2020/01/04 12:06:30.000  -25 26 54.11650  -49 13 51.44922   925.9436   6  13   0.0199   0.0266   0.0393  -0.0078  -0.0073  -0.0142   0.00    0.0
2020/01/04 12:06:45.000  -25 26 54.11641  -49 13 51.44933   925.9376   6  13   0.0234   0.0279   0.0452  -0.0050  -0.0116  -0.0160   0.00    0.0
2020/01/04 12:07:00.000  -25 26 54.11667  -49 13 51.44922   925.9520   6  13   0.0210   0.0259   0.0388  -0.0074  -0.0100  -0.0139   0.00    0.0
2020/01/04 12:07:15.000  -25 26 54.11649  -49 13 51.44929   925.9444   6  13   0.0233   0.0280   0.0456  -0.0047  -0.0120  -0.0164   0.00    0.0
2020/01/04 12:07:30.000  -25 26 54.11658  -49 13 51.44909   925.9482   6  13   0.0196   0.0249   0.0391  -0.0080  -0.0084  -0.0144   0.00    0.0
2020/01/04 12:07:45.000  -25 26 54.11690  -49 13 51.44935   925.9697   6  13   0.0235   0.0280   0.0450  -0.0054  -0.0122  -0.0161   0.00    0.0
2020/01/04 12:08:00.000  -25 26 54.11672  -49 13 51.44910   925.9335   6  13   0.0204   0.0262   0.0393  -0.0078  -0.0065  -0.0133   0.00    0.0
2020/01/04 12:08:15.000  -25 26 54.11694  -49 13 51.44944   925.9607   6  13   0.0235   0.0288   0.0447  -0.0057  -0.0125  -0.0165   0.00    0.0
2020/01/04 12:08:30.000  -25 26 54.11681  -49 13 51.44919   925.9420   6  13   0.0197   0.0261   0.0389  -0.0089  -0.0079  -0.0145   0.00    0.0
2020/01/04 12:08:45.000  -25 26 54.11662  -49 13 51.44939   925.9572   6  13   0.0232   0.0284   0.0448  -0.0057  -0.0122  -0.0163   0.00    0.0
2020/01/04 12:09:00.000  -25 26 54.11685  -49 13 51.44925   925.9430   6  13   0.0199   0.0259   0.0397  -0.0099  -0.0084  -0.0144   0.00    0.0
2020/01/04 12:09:15.000  -25 26 54.11705  -49 13 51.44949   925.9459   6  13   0.0235   0.0290   0.0452  -0.0076  -0.0115  -0.0169   0.00    0.0
2020/01/04 12:09:30.000  -25 26 54.11705  -49 13 51.44918   925.9417   6  13   0.0202   0.0257   0.0391  -0.0095  -0.0100  -0.0140   0.00    0.0
2020/01/04 12:09:45.000  -25 26 54.11718  -49 13 51.44940   925.9441   6  13   0.0231   0.0287   0.0446  -0.0059  -0.0123  -0.0160   0.00    0.0
2020/01/04 12:10:00.000  -25 26 54.11707  -49 13 51.44928   925.9467   6  13   0.0199   0.0266   0.0394  -0.0075  -0.0094  -0.0149   0.00    0.0
2020/01/04 12:10:15.000  -25 26 54.11675  -49 13 51.44958   925.9461   6  13   0.0226   0.0288   0.0448  -0.0069  -0.0115  -0.0149   0.00    0.0
2020/01/04 12:10:30.000  -25 26 54.11698  -49 13 51.44926   925.9318   6  13   0.0199   0.0267   0.0391  -0.0073  -0.0088  -0.0146   0.00    0.0
2020/01/04 12:10:45.000  -25 26 54.11730  -49 13 51.44954   925.9561   6  13   0.0232   0.0286   0.0451  -0.0049  -0.0128  -0.0164   0.00    0.0
2020/01/04 12:11:00.000  -25 26 54.11700  -49 13 51.44920   925.9467   6  13   0.0194   0.0262   0.0390  -0.0082  -0.0098  -0.0141   0.00    0.0
2020/01/04 12:11:15.000  -25 26 54.11713  -49 13 51.44949   925.9569   6  13   0.0228   0.0289   0.0442  -0.0052  -0.0128  -0.0156   0.00    0.0
2020/01/04 12:11:30.000  -25 26 54.11692  -49 13 51.44929   925.9482   6  13   0.0196   0.0267   0.0394  -0.0067  -0.0103  -0.0154   0.00    0.0
2020/01/04 12:11:45.000  -25 26 54.11662  -49 13 51.44979   925.9678   6  13   0.0229   0.0283   0.0446  -0.0074  -0.0120  -0.0158   0.00    0.0
2020/01/04 12:12:00.000  -25 26 54.11694  -49 13 51.44914   925.9449   6  13   0.0189   0.0260   0.0388  -0.0090  -0.0091  -0.0145   0.00    0.0
2020/01/04 12:12:15.000  -25 26 54.11695  -49 13 51.44925   925.9495   6  13   0.0224   0.0286   0.0441  -0.0049  -0.0134  -0.0156   0.00    0.0
2020/01/04 12:12:30.000  -25 26 54.11699  -49 13 51.44921   925.9382   6  13   0.0198   0.0264   0.0384  -0.0064  -0.0096  -0.0147   0.00    0.0
2020/01/04 12:12:45.000  -25 26 54.11767  -49 13 51.44919   925.9677   6  13   0.0220   0.0286   0.0440  -0.0047  -0.0134  -0.0159   0.00    0.0
2020/01/04 12:13:00.000  -25 26 54.11713  -49 13 51.44924   925.9498   6  13   0.0192   0.0260   0.0387  -0.0083  -0.0097  -0.0142   0.00    0.0
2020/01/04 12:13:15.000  -25 26 54.11710  -49 13 51.44940   925.9533   6  13   0.0220   0.0282   0.0446  -0.0070  -0.0123  -0.0154   0.00    0.0
2020/01/04 12:13:30.000  -25 26 54.11714  -49 13 51.44922   925.9535   6  13   0.0194   0.0265   0.0392  -0.0086  -0.0094  -0.0137   0.00    0.0
2020/01/04 12:13:45.000  -25 26 54.11712  -49 13 51.44953   925.9885   6  13   0.0218   0.0286   0.0444  -0.0061  -0.0135  -0.0150   0.00    0.0
2020/01/04 12:14:00.000  -25 26 54.11731  -49 13 51.44922   925.9538   6  13   0.0190   0.0269   0.0394  -0.0074  -0.0085  -0.0144   0.00    0.0
2020/01/04 12:14:15.000  -25 26 54.11735  -49 13 51.44956   925.9777   6  13   0.0218   0.0289   0.0444  -0.0059  -0.0127  -0.0154   0.00    0.0
2020/01/04 12:14:30.000  -25 26 54.11724  -49 13 51.44929   925.9503   6  13   0.0185   0.0267   0.0385  -0.0076  -0.0106  -0.0140   0.00    0.0
2020/01/04 12:14:45.000  -25 26 54.11727  -49 13 51.44945   925.9582   6  13   0.0218   0.0289   0.0441  -0.0045  -0.0128  -0.0152   0.00    0.0
2020/01/04 12:15:00.000  -25 26 54.11733  -49 13 51.44915   925.9642   6  13   0.0192   0.0267   0.0385  -0.0072  -0.0107  -0.0141   0.00    0.0
2020/01/04 12:15:15.000  -25 26 54.11752  -49 13 51.44911   925.9516   6  13   0.0213   0.0291   0.0437  -0.0050  -0.0132  -0.0148   0.00    0.0
2020/01/04 12:15:30.000  -25 26 54.11746  -49 13 51.44916   925.9671   6  13   0.0185   0.0263   0.0389  -0.0078  -0.0104  -0.0142   0.00    0.0
2020/01/04 12:15:45.000  -25 26 54.11755  -49 13 51.44932   925.9821   6  13   0.0210   0.0291   0.0440  -0.0041  -0.0130  -0.0153   0.00    0.0
2020/01/04 12:16:00.000  -25 26 54.11740  -49 13 51.44916   925.9665   6  13   0.0192   0.0267   0.0389  -0.0063  -0.0102  -0.0133   0.00    0.0
2020/01/04 12:16:15.000  -25 26 54.11756  -49 13 51.44958   925.9806   6  13   0.0209   0.0289   0.0439  -0.0051  -0.0130  -0.0144   0.00    0.0
2020/01/04 12:16:30.000  -25 26 54.11749  -49 13 51.44900   925.9752   6  13   0.0181   0.0262   0.0387  -0.0059  -0.0097  -0.0132   0.00    0.0
2020/01/04 12:16:45.000  -25 26 54.11758  -49 13 51.44941   925.9846   6  13   0.0214   0.0293   0.0435  -0.0044  -0.0135  -0.0152   0.00    0.0
2020/01/04 12:17:00.000  -25 26 54.11751  -49 13 51.44926   925.9762   6  13   0.0176   0.0274   0.0375  -0.0078  -0.0104  -0.0125   0.00    0.0
2020/01/04 12:17:15.000  -25 26 54.11791  -49 13 51.44951   925.9875   6  13   0.0208   0.0292   0.0434  -0.0035  -0.0142  -0.0152   0.00    0.0
2020/01/04 12:17:30.000  -25 26 54.11766  -49 13 51.44904   925.9827   6  13   0.0177   0.0270   0.0376  -0.0056  -0.0118  -0.0135   0.00    0.0
2020/01/04 12:17:45.000  -25 26 54.11754  -49 13 51.44929   925.9952   6  13   0.0203   0.0291   0.0433  -0.0039  -0.0137  -0.0150   0.00    0.0
2020/01/04 12:18:00.000  -25 26 54.11770  -49 13 51.44919   925.9929   6  13   0.0185   0.0271   0.0374  -0.0064  -0.0106  -0.0131   0.00    0.0
2020/01/04 12:18:15.000  -25 26 54.11741  -49 13 51.44960   926.0009   6  13   0.0202   0.0294   0.0435  -0.0040  -0.0138  -0.0149   0.00    0.0
2020/01/04 12:18:30.000  -25 26 54.11768  -49 13 51.44899   925.9900   6  13   0.0180   0.0273   0.0381  -0.0052  -0.0111  -0.0141   0.00    0.0
2020/01/04 12:18:45.000  -25 26 54.11777  -49 13 51.44922   926.0219   6  13   0.0202   0.0291   0.0430  -0.0011  -0.0140  -0.0147   0.00    0.0
2020/01/04 12:19:00.000  -25 26 54.11759  -49 13 51.44897   925.9998   6  13   0.0175   0.0270   0.0376  -0.0064  -0.0120  -0.0136   0.00    0.0
2020/01/04 12:19:15.000  -25 26 54.11738  -49 13 51.44918   925.9942   6  14   0.0189   0.0284   0.0401  -0.0082  -0.0093  -0.0094   0.00    0.0
2020/01/04 12:19:30.000  -25 26 54.11758  -49 13 51.44916   925.9975   6  14   0.0169   0.0270   0.0362  -0.0093  -0.0071  -0.0099   0.00    0.0
2020/01/04 12:19:45.000  -25 26 54.11761  -49 13 51.44921   926.0214   6  14   0.0187   0.0284   0.0397  -0.0086  -0.0098  -0.0092   0.00    0.0
2020/01/04 12:20:00.000  -25 26 54.11754  -49 13 51.44923   926.0051   6  14   0.0166   0.0268   0.0357  -0.0082  -0.0087  -0.0094   0.00    0.0
2020/01/04 12:20:15.000  -25 26 54.11761  -49 13 51.44920   925.9959   6  14   0.0184   0.0287   0.0398  -0.0079  -0.0098  -0.0102   0.00    0.0
2020/01/04 12:20:30.000  -25 26 54.11747  -49 13 51.44911   926.0086   6  14   0.0158   0.0271   0.0354  -0.0083  -0.0106  -0.0094   0.00    0.0
2020/01/04 12:20:45.000  -25 26 54.11716  -49 13 51.44937   926.0169   6  14   0.0182   0.0287   0.0396  -0.0081  -0.0102  -0.0087   0.00    0.0
2020/01/04 12:21:00.000  -25 26 54.11751  -49 13 51.44893   926.0049   6  14   0.0157   0.0267   0.0347  -0.0082  -0.0103  -0.0095   0.00    0.0
2020/01/04 12:21:15.000  -25 26 54.11744  -49 13 51.44911   926.0008   6  14   0.0182   0.0284   0.0394  -0.0079  -0.0107  -0.0084   0.00    0.0
2020/01/04 12:21:30.000  -25 26 54.11760  -49 13 51.44896   926.0065   6  14   0.0160   0.0270   0.0352  -0.0082  -0.0094  -0.0092   0.00    0.0
2020/01/04 12:21:45.000  -25 26 54.11752  -49 13 51.44922   926.0108   6  14   0.0179   0.0286   0.0396  -0.0083  -0.0109  -0.0084   0.00    0.0
2020/01/04 12:22:00.000  -25 26 54.11761  -49 13 51.44892   926.0074   6  14   0.0159   0.0268   0.0350  -0.0080  -0.0102  -0.0103   0.00    0.0
2020/01/04 12:22:15.000  -25 26 54.11778  -49 13 51.44905   926.0249   6  14   0.0179   0.0290   0.0399  -0.0083  -0.0113  -0.0083   0.00    0.0
2020/01/04 12:22:30.000  -25 26 54.11755  -49 13 51.44903   926.0285   6  14   0.0158   0.0276   0.0367  -0.0077  -0.0104  -0.0090   0.00    0.0
2020/01/04 12:22:45.000  -25 26 54.11738  -49 13 51.44951   926.0342   6  13   0.0180   0.0290   0.0407  -0.0075  -0.0132  -0.0074   0.00    0.0
2020/01/04 12:23:00.000  -25 26 54.11752  -49 13 51.44901   926.0263   6  13   0.0159   0.0265   0.0356  -0.0091  -0.0113  -0.0074   0.00    0.0
2020/01/04 12:23:15.000  -25 26 54.11760  -49 13 51.44936   926.0351   6  13   0.0176   0.0289   0.0407  -0.0087  -0.0126  -0.0067   0.00    0.0
2020/01/04 12:23:30.000  -25 26 54.11744  -49 13 51.44908   926.0226   6  13   0.0161   0.0272   0.0362  -0.0083  -0.0113  -0.0074   0.00    0.0
2020/01/04 12:23:45.000  -25 26 54.11751  -49 13 51.44908   926.0343   6  13   0.0177   0.0290   0.0404  -0.0087  -0.0135  -0.0069   0.00    0.0
2020/01/04 12:24:00.000  -25 26 54.11747  -49 13 51.44897   926.0298   6  13   0.0155   0.0271   0.0352  -0.0083  -0.0113  -0.0082   0.00    0.0
2020/01/04 12:24:15.000  -25 26 54.11776  -49 13 51.44935   926.0405   6  13   0.0175   0.0292   0.0400  -0.0075  -0.0135  -0.0077   0.00    0.0
2020/01/04 12:24:30.000  -25 26 54.11762  -49 13 51.44916   926.0342   6  13   0.0153   0.0276   0.0360  -0.0070  -0.0115  -0.0090   0.00    0.0
2020/01/04 12:24:45.000  -25 26 54.11733  -49 13 51.44940   926.0607   6  13   0.0174   0.0288   0.0399  -0.0075  -0.0132  -0.0065   0.00    0.0
2020/01/04 12:25:00.000  -25 26 54.11746  -49 13 51.44922   926.0428   6  13   0.0155   0.0280   0.0354  -0.0084  -0.0123  -0.0072   0.00    0.0
2020/01/04 12:25:15.000  -25 26 54.11764  -49 13 51.44936   926.0474   6  13   0.0172   0.0291   0.0400  -0.0078  -0.0125  -0.0068   0.00    0.0
2020/01/04 12:25:30.000  -25 26 54.11747  -49 13 51.44923   926.0479   6  13   0.0152   0.0278   0.0357  -0.0080  -0.0119  -0.0083   0.00    0.0
2020/01/04 12:25:45.000  -25 26 54.11736  -49 13 51.44948   926.0698   6  13   0.0172   0.0292   0.0395  -0.0081  -0.0129  -0.0066   0.00    0.0
2020/01/04 12:26:00.000  -25 26 54.11742  -49 13 51.44932   926.0487   6  13   0.0146   0.0273   0.0354  -0.0077  -0.0112  -0.0089   0.00    0.0
2020/01/04 12:26:15.000  -25 26 54.11745  -49 13 51.44941   926.0447   6  13   0.0168   0.0291   0.0394  -0.0082  -0.0129  -0.0062   0.00    0.0
2020/01/04 12:26:30.000  -25 26 54.11758  -49 13 51.44930   926.0508   6  13   0.0151   0.0270   0.0350  -0.0084  -0.0112  -0.0074   0.00    0.0
2020/01/04 12:26:45.000  -25 26 54.11794  -49 13 51.44962   926.0639   6  13   0.0167   0.0291   0.0392  -0.0081  -0.0127  -0.0064   0.00    0.0
2020/01/04 12:27:00.000  -25 26 54.11771  -49 13 51.44933   926.0639   6  13   0.0152   0.0277   0.0354  -0.0077  -0.0112  -0.0059   0.00    0.0
2020/01/04 12:27:15.000  -25 26 54.11757  -49 13 51.44985   926.0723   6  13   0.0167   0.0292   0.0395  -0.0078  -0.0121  -0.0061   0.00    0.0
2020/01/04 12:27:30.000  -25 26 54.11761  -49 13 51.44956   926.0555   6  13   0.0150   0.0276   0.0346  -0.0079  -0.0112  -0.0076   0.00    0.0
2020/01/04 12:27:45.000  -25 26 54.11768  -49 13 51.44990   926.0701   6  13   0.0169   0.0290   0.0391  -0.0076  -0.0130  -0.0065   0.00    0.0
2020/01/04 12:28:00.000  -25 26 54.11765  -49 13 51.44952   926.0636   6  13   0.0148   0.0273   0.0348  -0.0075  -0.0117  -0.0079   0.00    0.0
2020/01/04 12:28:15.000  -25 26 54.11769  -49 13 51.44982   926.0534   6  13   0.0168   0.0292   0.0390  -0.0079  -0.0125  -0.0062   0.00    0.0
2020/01/04 12:28:30.000  -25 26 54.11780  -49 13 51.44964   926.0695   6  13   0.0149   0.0274   0.0342  -0.0063  -0.0127  -0.0074   0.00    0.0
2020/01/04 12:28:45.000  -25 26 54.11742  -49 13 51.44997   926.0985   6  13   0.0164   0.0291   0.0389  -0.0080  -0.0122  -0.0062   0.00    0.0
2020/01/04 12:29:00.000  -25 26 54.11780  -49 13 51.44965   926.0588   6  13   0.0149   0.0271   0.0346  -0.0081  -0.0107  -0.0082   0.00    0.0
2020/01/04 12:29:15.000  -25 26 54.11813  -49 13 51.44994   926.0824   6  13   0.0166   0.0290   0.0389  -0.0079  -0.0123  -0.0057   0.00    0.0
2020/01/04 12:29:30.000  -25 26 54.11790  -49 13 51.44987   926.0650   6  13   0.0143   0.0275   0.0346  -0.0074  -0.0122  -0.0068   0.00    0.0
2020/01/04 12:29:45.000  -25 26 54.11817  -49 13 51.45021   926.0539   6  13   0.0163   0.0290   0.0385  -0.0082  -0.0124  -0.0062   0.00    0.0
2020/01/04 12:30:00.000  -25 26 54.11773  -49 13 51.44996   926.0744   6  13   0.0144   0.0274   0.0341  -0.0089  -0.0113  -0.0080   0.00    0.0
2020/01/04 12:30:15.000  -25 26 54.11803  -49 13 51.45005   926.0759   6  13   0.0168   0.0288   0.0389  -0.0077  -0.0117  -0.0066   0.00    0.0
2020/01/04 12:30:30.000  -25 26 54.11783  -49 13 51.44991   926.0642   6  13   0.0148   0.0276   0.0345  -0.0074  -0.0110  -0.0091   0.00    0.0
2020/01/04 12:30:45.000  -25 26 54.11771  -49 13 51.45039   926.0920   6  13   0.0164   0.0288   0.0384  -0.0078  -0.0122  -0.0063   0.00    0.0
2020/01/04 12:31:00.000  -25 26 54.11790  -49 13 51.45023   926.0715   6  13   0.0141   0.0277   0.0341  -0.0075  -0.0116  -0.0092   0.00    0.0
2020/01/04 12:31:15.000  -25 26 54.11813  -49 13 51.45035   926.0958   6  13   0.0162   0.0291   0.0385  -0.0080  -0.0122  -0.0062   0.00    0.0
2020/01/04 12:31:30.000  -25 26 54.11782  -49 13 51.45034   926.0678   6  13   0.0147   0.0280   0.0343  -0.0077  -0.0119  -0.0080   0.00    0.0
2020/01/04 12:31:45.000  -25 26 54.11757  -49 13 51.45071   926.0748   6  13   0.0165   0.0291   0.0383  -0.0077  -0.0120  -0.0062   0.00    0.0
2020/01/04 12:32:00.000  -25 26 54.11771  -49 13 51.45037   926.0660   6  13   0.0140   0.0278   0.0340  -0.0073  -0.0122  -0.0068   0.00    0.0
2020/01/04 12:32:15.000  -25 26 54.11786  -49 13 51.45038   926.0840   6  13   0.0160   0.0290   0.0384  -0.0076  -0.0120  -0.0062   0.00    0.0
2020/01/04 12:32:30.000  -25 26 54.11761  -49 13 51.45027   926.0677   6  13   0.0140   0.0274   0.0343  -0.0085  -0.0111  -0.0073   0.00    0.0
2020/01/04 12:32:45.000  -25 26 54.11798  -49 13 51.45072   926.0686   6  13   0.0162   0.0289   0.0384  -0.0077  -0.0121  -0.0059   0.00    0.0
2020/01/04 12:33:00.000  -25 26 54.11783  -49 13 51.45015   926.0773   6  13   0.0139   0.0274   0.0336  -0.0076  -0.0110  -0.0082   0.00    0.0
2020/01/04 12:33:15.000  -25 26 54.11793  -49 13 51.45081   926.0714   6  13   0.0156   0.0289   0.0380  -0.0070  -0.0120  -0.0060   0.00    0.0
2020/01/04 12:33:30.000  -25 26 54.11793  -49 13 51.45009   926.0669   6  13   0.0142   0.0274   0.0339  -0.0066  -0.0114  -0.0076   0.00    0.0
2020/01/04 12:33:45.000  -25 26 54.11802  -49 13 51.45045   926.1062   6  13   0.0160   0.0289   0.0381  -0.0081  -0.0114  -0.0061   0.00    0.0
2020/01/04 12:34:00.000  -25 26 54.11782  -49 13 51.45032   926.0915   6  13   0.0139   0.0276   0.0340  -0.0075  -0.0119  -0.0090   0.00    0.0
2020/01/04 12:34:15.000  -25 26 54.11803  -49 13 51.45026   926.0787   6  13   0.0158   0.0290   0.0380  -0.0077  -0.0117  -0.0055   0.00    0.0
2020/01/04 12:34:30.000  -25 26 54.11789  -49 13 51.45037   926.0793   6  13   0.0139   0.0275   0.0337  -0.0076  -0.0114  -0.0076   0.00    0.0
2020/01/04 12:34:45.000  -25 26 54.11752  -49 13 51.45057   926.0941   6  13   0.0158   0.0287   0.0380  -0.0074  -0.0116  -0.0054   0.00    0.0
2020/01/04 12:35:00.000  -25 26 54.11788  -49 13 51.45037   926.0774   6  13   0.0134   0.0273   0.0338  -0.0077  -0.0112  -0.0076   0.00    0.0
2020/01/04 12:35:15.000  -25 26 54.11759  -49 13 51.45089   926.1005   6  13   0.0160   0.0289   0.0382  -0.0078  -0.0116  -0.0062   0.00    0.0
2020/01/04 12:35:30.000  -25 26 54.11781  -49 13 51.45049   926.0773   6  13   0.0133   0.0278   0.0341  -0.0068  -0.0110  -0.0075   0.00    0.0
2020/01/04 12:35:45.000  -25 26 54.11769  -49 13 51.45058   926.0972   6  13   0.0156   0.0289   0.0378  -0.0079  -0.0112  -0.0053   0.00    0.0
2020/01/04 12:36:00.000  -25 26 54.11787  -49 13 51.45052   926.0798   6  13   0.0137   0.0276   0.0335  -0.0068  -0.0115  -0.0061   0.00    0.0
2020/01/04 12:36:15.000  -25 26 54.11809  -49 13 51.45054   926.0832   6  13   0.0158   0.0287   0.0381  -0.0074  -0.0108  -0.0051   0.00    0.0
2020/01/04 12:36:30.000  -25 26 54.11752  -49 13 51.45027   926.0768   6  13   0.0133   0.0276   0.0349  -0.0074  -0.0104  -0.0075   0.00    0.0
2020/01/04 12:36:45.000  -25 26 54.11777  -49 13 51.45037   926.1069   6  13   0.0157   0.0288   0.0378  -0.0079  -0.0110  -0.0064   0.00    0.0
2020/01/04 12:37:00.000  -25 26 54.11772  -49 13 51.45011   926.0744   6  13   0.0138   0.0277   0.0339  -0.0070  -0.0107  -0.0063   0.00    0.0
2020/01/04 12:37:15.000  -25 26 54.11719  -49 13 51.45057   926.0841   6  13   0.0158   0.0289   0.0377  -0.0074  -0.0107  -0.0060   0.00    0.0
2020/01/04 12:37:30.000  -25 26 54.11761  -49 13 51.45031   926.0879   6  13   0.0140   0.0275   0.0337  -0.0079  -0.0114  -0.0062   0.00    0.0
2020/01/04 12:37:45.000  -25 26 54.11810  -49 13 51.45028   926.0834   6  13   0.0155   0.0286   0.0377  -0.0073  -0.0106  -0.0054   0.00    0.0
2020/01/04 12:38:00.000  -25 26 54.11765  -49 13 51.45027   926.0863   6  13   0.0135   0.0271   0.0330  -0.0075  -0.0106  -0.0063   0.00    0.0
2020/01/04 12:38:15.000  -25 26 54.11771  -49 13 51.45028   926.0832   6  13   0.0157   0.0286   0.0378  -0.0074  -0.0107  -0.0055   0.00    0.0
2020/01/04 12:38:30.000  -25 26 54.11771  -49 13 51.45020   926.0752   6  13   0.0138   0.0273   0.0334  -0.0073  -0.0117  -0.0069   0.00    0.0
2020/01/04 12:38:45.000  -25 26 54.11778  -49 13 51.45008   926.0822   6  13   0.0154   0.0287   0.0377  -0.0074  -0.0101  -0.0060   0.00    0.0
2020/01/04 12:39:00.000  -25 26 54.11774  -49 13 51.45019   926.0890   6  13   0.0134   0.0273   0.0338  -0.0079  -0.0108  -0.0065   0.00    0.0
2020/01/04 12:39:15.000  -25 26 54.11762  -49 13 51.45047   926.1003   6  13   0.0156   0.0287   0.0377  -0.0077  -0.0107  -0.0055   0.00    0.0
2020/01/04 12:39:30.000  -25 26 54.11758  -49 13 51.44994   926.0835   6  13   0.0137   0.0269   0.0336  -0.0081  -0.0106  -0.0052   0.00    0.0
2020/01/04 12:39:45.000  -25 26 54.11775  -49 13 51.45004   926.0938   6  13   0.0152   0.0286   0.0375  -0.0078  -0.0103  -0.0062   0.00    0.0
2020/01/04 12:40:00.000  -25 26 54.11742  -49 13 51.45033   926.0881   6  13   0.0135   0.0276   0.0331  -0.0077  -0.0103  -0.0055   0.00    0.0
2020/01/04 12:40:15.000  -25 26 54.11792  -49 13 51.45035   926.0566   6  13   0.0155   0.0287   0.0379  -0.0079  -0.0096  -0.0051   0.00    0.0
2020/01/04 12:40:30.000  -25 26 54.11762  -49 13 51.45028   926.0886   6  13   0.0134   0.0273   0.0333  -0.0074  -0.0105  -0.0064   0.00    0.0
2020/01/04 12:40:45.000  -25 26 54.11742  -49 13 51.45052   926.1108   6  13   0.0152   0.0287   0.0377  -0.0073  -0.0101  -0.0054   0.00    0.0
2020/01/04 12:41:00.000  -25 26 54.11767  -49 13 51.45018   926.0949   6  13   0.0132   0.0275   0.0330  -0.0068  -0.0106  -0.0060   0.00    0.0
2020/01/04 12:41:15.000  -25 26 54.11754  -49 13 51.45026   926.0773   6  13   0.0153   0.0285   0.0378  -0.0080  -0.0095  -0.0051   0.00    0.0
2020/01/04 12:41:30.000  -25 26 54.11770  -49 13 51.45012   926.0783   6  13   0.0127   0.0270   0.0333  -0.0077  -0.0095  -0.0059   0.00    0.0
2020/01/04 12:41:45.000  -25 26 54.11784  -49 13 51.45034   926.1065   6  13   0.0153   0.0283   0.0376  -0.0069  -0.0098  -0.0054   0.00    0.0
2020/01/04 12:42:00.000  -25 26 54.11760  -49 13 51.45032   926.0839   6  13   0.0133   0.0274   0.0332  -0.0071  -0.0110  -0.0056   0.00    0.0
2020/01/04 12:42:15.000  -25 26 54.11785  -49 13 51.45045   926.0825   6  13   0.0152   0.0286   0.0377  -0.0073  -0.0100  -0.0059   0.00    0.0
2020/01/04 12:42:30.000  -25 26 54.11780  -49 13 51.45027   926.0819   6  13   0.0135   0.0275   0.0336  -0.0075  -0.0100  -0.0053   0.00    0.0
2020/01/04 12:42:45.000  -25 26 54.11787  -49 13 51.45054   926.1192   6  13   0.0155   0.0285   0.0376  -0.0074  -0.0085  -0.0056   0.00    0.0
2020/01/04 12:43:00.000  -25 26 54.11785  -49 13 51.45034   926.0909   6  13   0.0135   0.0273   0.0332  -0.0071  -0.0104  -0.0064   0.00    0.0
2020/01/04 12:43:15.000  -25 26 54.11762  -49 13 51.45066   926.1132   6  13   0.0151   0.0283   0.0374  -0.0068  -0.0100  -0.0055   0.00    0.0
2020/01/04 12:43:30.000  -25 26 54.11756  -49 13 51.45062   926.0920   6  13   0.0131   0.0274   0.0333  -0.0073  -0.0104  -0.0067   0.00    0.0
2020/01/04 12:43:45.000  -25 26 54.11743  -49 13 51.45048   926.0723   6  13   0.0153   0.0283   0.0376  -0.0078  -0.0090  -0.0052   0.00    0.0
2020/01/04 12:44:00.000  -25 26 54.11769  -49 13 51.45054   926.0834   6  13   0.0131   0.0277   0.0335  -0.0067  -0.0103  -0.0076   0.00    0.0
2020/01/04 12:44:15.000  -25 26 54.11773  -49 13 51.45086   926.0768   6  13   0.0152   0.0284   0.0377  -0.0071  -0.0090  -0.0059   0.00    0.0
2020/01/04 12:44:30.000  -25 26 54.11761  -49 13 51.45065   926.1003   6  13   0.0136   0.0273   0.0333  -0.0066  -0.0105  -0.0056   0.00    0.0
2020/01/04 12:44:45.000  -25 26 54.11736  -49 13 51.45074   926.1103   6  13   0.0151   0.0283   0.0374  -0.0074  -0.0087  -0.0055   0.00    0.0
2020/01/04 12:45:00.000  -25 26 54.11753  -49 13 51.45086   926.1043   6  13   0.0130   0.0271   0.0335  -0.0066  -0.0100  -0.0055   0.00    0.0
2020/01/04 12:45:15.000  -25 26 54.11821  -49 13 51.45038   926.0966   6  13   0.0149   0.0283   0.0373  -0.0070  -0.0093  -0.0051   0.00    0.0
2020/01/04 12:45:30.000  -25 26 54.11781  -49 13 51.45092   926.1040   6  13   0.0136   0.0270   0.0331  -0.0072  -0.0106  -0.0063   0.00    0.0
2020/01/04 12:45:45.000  -25 26 54.11786  -49 13 51.45130   926.0870   6  13   0.0153   0.0283   0.0371  -0.0072  -0.0088  -0.0052   0.00    0.0
2020/01/04 12:46:00.000  -25 26 54.11763  -49 13 51.45089   926.1062   6  13   0.0132   0.0272   0.0334  -0.0065  -0.0103  -0.0058   0.00    0.0
2020/01/04 12:46:15.000  -25 26 54.11727  -49 13 51.45060   926.1239   6  13   0.0150   0.0281   0.0374  -0.0076  -0.0087  -0.0058   0.00    0.0
2020/01/04 12:46:30.000  -25 26 54.11754  -49 13 51.45060   926.1064   6  13   0.0126   0.0273   0.0335  -0.0072  -0.0094  -0.0073   0.00    0.0
2020/01/04 12:46:45.000  -25 26 54.11772  -49 13 51.45083   926.1035   6  13   0.0151   0.0282   0.0376  -0.0072  -0.0084  -0.0052   0.00    0.0
2020/01/04 12:47:00.000  -25 26 54.11742  -49 13 51.45047   926.0917   6  13   0.0130   0.0269   0.0332  -0.0073  -0.0097  -0.0055   0.00    0.0
2020/01/04 12:47:15.000  -25 26 54.11727  -49 13 51.45075   926.1138   6  13   0.0153   0.0282   0.0378  -0.0070  -0.0077  -0.0062   0.00    0.0
2020/01/04 12:47:30.000  -25 26 54.11753  -49 13 51.45049   926.0888   6  13   0.0131   0.0270   0.0332  -0.0060  -0.0106  -0.0066   0.00    0.0
2020/01/04 12:47:45.000  -25 26 54.11785  -49 13 51.45052   926.0947   6  13   0.0151   0.0282   0.0377  -0.0073  -0.0080  -0.0044   0.00    0.0
2020/01/04 12:48:00.000  -25 26 54.11755  -49 13 51.45074   926.1146   6  13   0.0130   0.0271   0.0338  -0.0073  -0.0092  -0.0070   0.00    0.0
2020/01/04 12:48:15.000  -25 26 54.11749  -49 13 51.45066   926.1029   6  13   0.0150   0.0280   0.0376  -0.0070  -0.0079  -0.0056   0.00    0.0
2020/01/04 12:48:30.000  -25 26 54.11754  -49 13 51.45068   926.0973   6  13   0.0127   0.0268   0.0330  -0.0066  -0.0099  -0.0052   0.00    0.0
2020/01/04 12:48:45.000  -25 26 54.11720  -49 13 51.45074   926.1165   6  13   0.0151   0.0280   0.0376  -0.0071  -0.0077  -0.0048   0.00    0.0
2020/01/04 12:49:00.000  -25 26 54.11751  -49 13 51.45077   926.0894   6  13   0.0132   0.0270   0.0336  -0.0067  -0.0095  -0.0068   0.00    0.0
2020/01/04 12:49:15.000  -25 26 54.11768  -49 13 51.45071   926.1014   6  13   0.0151   0.0280   0.0376  -0.0072  -0.0079  -0.0040   0.00    0.0
2020/01/04 12:49:30.000  -25 26 54.11740  -49 13 51.45097   926.0934   6  13   0.0130   0.0270   0.0339  -0.0061  -0.0090  -0.0067   0.00    0.0
2020/01/04 12:49:45.000  -25 26 54.11754  -49 13 51.45055   926.0869   6  13   0.0152   0.0280   0.0374  -0.0072  -0.0072  -0.0044   0.00    0.0
2020/01/04 12:50:00.000  -25 26 54.11746  -49 13 51.45072   926.0861   6  13   0.0134   0.0270   0.0338  -0.0071  -0.0092  -0.0057   0.00    0.0
2020/01/04 12:50:15.000  -25 26 54.11806  -49 13 51.45030   926.0719   6  13   0.0151   0.0281   0.0377  -0.0068  -0.0081  -0.0045   0.00    0.0
2020/01/04 12:50:30.000  -25 26 54.11762  -49 13 51.45076   926.0914   6  13   0.0133   0.0272   0.0335  -0.0058  -0.0098  -0.0055   0.00    0.0
2020/01/04 12:50:45.000  -25 26 54.11777  -49 13 51.45103   926.0942   6  13   0.0151   0.0281   0.0379  -0.0067  -0.0075  -0.0051   0.00    0.0
2020/01/04 12:51:00.000  -25 26 54.11766  -49 13 51.45089   926.0950   6  13   0.0130   0.0269   0.0337  -0.0058  -0.0088  -0.0060   0.00    0.0
2020/01/04 12:51:15.000  -25 26 54.11784  -49 13 51.45079   926.0710   6  13   0.0150   0.0281   0.0378  -0.0072  -0.0070  -0.0049   0.00    0.0
2020/01/04 12:51:30.000  -25 26 54.11778  -49 13 51.45086   926.0990   6  13   0.0124   0.0270   0.0334  -0.0069  -0.0091  -0.0047   0.00    0.0
2020/01/04 12:51:45.000  -25 26 54.11749  -49 13 51.45093   926.1059   6  13   0.0148   0.0280   0.0382  -0.0063  -0.0063  -0.0059   0.00    0.0
2020/01/04 12:52:00.000  -25 26 54.11772  -49 13 51.45106   926.0817   6  13   0.0131   0.0268   0.0338  -0.0062  -0.0099  -0.0052   0.00    0.0
2020/01/04 12:52:15.000  -25 26 54.11758  -49 13 51.45096   926.1079   6  13   0.0150   0.0279   0.0380  -0.0069  -0.0072  -0.0041   0.00    0.0
2020/01/04 12:52:30.000  -25 26 54.11785  -49 13 51.45116   926.0952   6  13   0.0132   0.0270   0.0338  -0.0058  -0.0079  -0.0059   0.00    0.0
2020/01/04 12:52:45.000  -25 26 54.11791  -49 13 51.45095   926.0889   6  13   0.0148   0.0280   0.0380  -0.0064  -0.0064  -0.0046   0.00    0.0
2020/01/04 12:53:00.000  -25 26 54.11776  -49 13 51.45127   926.0916   6  13   0.0130   0.0267   0.0335  -0.0071  -0.0096  -0.0054   0.00    0.0
2020/01/04 12:53:15.000  -25 26 54.11736  -49 13 51.45121   926.1079   6  13   0.0150   0.0280   0.0384  -0.0066  -0.0064  -0.0059   0.00    0.0
2020/01/04 12:53:30.000  -25 26 54.11791  -49 13 51.45127   926.1054   6  13   0.0130   0.0268   0.0338  -0.0064  -0.0088  -0.0070   0.00    0.0
2020/01/04 12:53:45.000  -25 26 54.11796  -49 13 51.45113   926.1058   6  13   0.0150   0.0280   0.0383  -0.0071  -0.0066  -0.0052   0.00    0.0
2020/01/04 12:54:00.000  -25 26 54.11799  -49 13 51.45130   926.0957   6  13   0.0132   0.0268   0.0336  -0.0067  -0.0087  -0.0042   0.00    0.0
2020/01/04 12:54:15.000  -25 26 54.11774  -49 13 51.45145   926.1242   6  13   0.0151   0.0282   0.0384  -0.0071  -0.0067  -0.0050   0.00    0.0
2020/01/04 12:54:30.000  -25 26 54.11786  -49 13 51.45141   926.0961   6  13   0.0126   0.0268   0.0337  -0.0063  -0.0086  -0.0048   0.00    0.0
2020/01/04 12:54:45.000  -25 26 54.11761  -49 13 51.45141   926.1184   6  13   0.0151   0.0279   0.0384  -0.0065  -0.0059  -0.0052   0.00    0.0
2020/01/04 12:55:00.000  -25 26 54.11792  -49 13 51.45151   926.1016   6  13   0.0130   0.0267   0.0344  -0.0061  -0.0088  -0.0061   0.00    0.0
2020/01/04 12:55:15.000  -25 26 54.11836  -49 13 51.45139   926.0950   6  13   0.0153   0.0280   0.0386  -0.0069  -0.0060  -0.0056   0.00    0.0
2020/01/04 12:55:30.000  -25 26 54.11794  -49 13 51.45152   926.1023   6  13   0.0126   0.0267   0.0339  -0.0051  -0.0089  -0.0051   0.00    0.0
2020/01/04 12:55:45.000  -25 26 54.11766  -49 13 51.45157   926.1085   6  13   0.0150   0.0277   0.0385  -0.0070  -0.0056  -0.0042   0.00    0.0
2020/01/04 12:56:00.000  -25 26 54.11807  -49 13 51.45175   926.1025   6  13   0.0138   0.0271   0.0344  -0.0068  -0.0084  -0.0040   0.00    0.0
2020/01/04 12:56:15.000  -25 26 54.11794  -49 13 51.45183   926.1153   6  13   0.0148   0.0279   0.0386  -0.0066  -0.0057  -0.0054   0.00    0.0
2020/01/04 12:56:30.000  -25 26 54.11795  -49 13 51.45183   926.0954   6  13   0.0127   0.0265   0.0342  -0.0049  -0.0088  -0.0036   0.00    0.0
2020/01/04 12:56:45.000  -25 26 54.11754  -49 13 51.45172   926.1020   6  13   0.0151   0.0279   0.0387  -0.0067  -0.0042  -0.0049   0.00    0.0
2020/01/04 12:57:00.000  -25 26 54.11797  -49 13 51.45166   926.1003   6  13   0.0135   0.0265   0.0349  -0.0064  -0.0076  -0.0046   0.00    0.0
2020/01/04 12:57:15.000  -25 26 54.11846  -49 13 51.45175   926.1047   6  13   0.0152   0.0280   0.0391  -0.0065  -0.0042  -0.0057   0.00    0.0
2020/01/04 12:57:30.000  -25 26 54.11794  -49 13 51.45212   926.1019   6  13   0.0126   0.0266   0.0345  -0.0062  -0.0084  -0.0054   0.00    0.0
2020/01/04 12:57:45.000  -25 26 54.11825  -49 13 51.45193   926.0694   6  13   0.0151   0.0277   0.0388  -0.0061  -0.0054  -0.0045   0.00    0.0
2020/01/04 12:58:00.000  -25 26 54.11784  -49 13 51.45185   926.1027   6  13   0.0131   0.0269   0.0344  -0.0060  -0.0082  -0.0042   0.00    0.0
2020/01/04 12:58:15.000  -25 26 54.11801  -49 13 51.45164   926.1011   6  13   0.0151   0.0280   0.0391  -0.0066  -0.0049  -0.0046   0.00    0.0
2020/01/04 12:58:30.000  -25 26 54.11797  -49 13 51.45204   926.1003   6  13   0.0126   0.0264   0.0349  -0.0051  -0.0090  -0.0032   0.00    0.0
2020/01/04 12:58:45.000  -25 26 54.11784  -49 13 51.45161   926.1006   6  13   0.0152   0.0279   0.0390  -0.0057  -0.0051  -0.0037   0.00    0.0
2020/01/04 12:59:00.000  -25 26 54.11786  -49 13 51.45203   926.0878   6  13   0.0131   0.0266   0.0350  -0.0053  -0.0080  -0.0029   0.00    0.0
2020/01/04 12:59:15.000  -25 26 54.11819  -49 13 51.45199   926.1117   6  13   0.0152   0.0279   0.0395  -0.0063  -0.0047  -0.0047   0.00    0.0
2020/01/04 12:59:30.000  -25 26 54.11805  -49 13 51.45231   926.0904   6  13   0.0132   0.0266   0.0350  -0.0057  -0.0083  -0.0043   0.00    0.0
2020/01/04 12:59:45.000  -25 26 54.11807  -49 13 51.45208   926.0760   6  13   0.0152   0.0278   0.0393  -0.0063  -0.0047  -0.0041   0.00    0.0
2020/01/04 13:00:00.000  -25 26 54.11780  -49 13 51.45236   926.0826   6  13   0.0126   0.0265   0.0349  -0.0044  -0.0088  -0.0053   0.00    0.0
2020/01/04 13:00:15.000  -25 26 54.11730  -49 13 51.45234   926.0941   6  13   0.0152   0.0280   0.0398  -0.0063  -0.0035  -0.0048   0.00    0.0
2020/01/04 13:00:30.000  -25 26 54.11792  -49 13 51.45228   926.0727   6  13   0.0131   0.0267   0.0353  -0.0060  -0.0081  -0.0046   0.00    0.0
2020/01/04 13:00:45.000  -25 26 54.11828  -49 13 51.45209   926.0589   6  13   0.0153   0.0279   0.0397  -0.0064  -0.0052  -0.0025   0.00    0.0
2020/01/04 13:01:00.000  -25 26 54.11782  -49 13 51.45252   926.0848   6  13   0.0128   0.0263   0.0353  -0.0052  -0.0079  -0.0030   0.00    0.0
2020/01/04 13:01:15.000  -25 26 54.11858  -49 13 51.45227   926.0803   6  13   0.0149   0.0279   0.0399  -0.0054  -0.0040  -0.0054   0.00    0.0
2020/01/04 13:01:30.000  -25 26 54.11799  -49 13 51.45248   926.0787   6  13   0.0131   0.0266   0.0351  -0.0062  -0.0084   0.0023   0.00    0.0
2020/01/04 13:01:45.000  -25 26 54.11835  -49 13 51.45251   926.0615   6  13   0.0152   0.0278   0.0402  -0.0057  -0.0030  -0.0047   0.00    0.0
2020/01/04 13:02:00.000  -25 26 54.11797  -49 13 51.45244   926.0771   6  13   0.0137   0.0266   0.0359  -0.0057  -0.0079  -0.0050   0.00    0.0
2020/01/04 13:02:15.000  -25 26 54.11786  -49 13 51.45256   926.0650   6  13   0.0155   0.0279   0.0410  -0.0060  -0.0042  -0.0054   0.00    0.0
2020/01/04 13:02:30.000  -25 26 54.11793  -49 13 51.45240   926.0683   6  12   0.0135   0.0264   0.0366  -0.0045  -0.0089  -0.0049   0.00    0.0
2020/01/04 13:02:45.000  -25 26 54.11829  -49 13 51.45200   926.0845   6  12   0.0156   0.0278   0.0414  -0.0042  -0.0050  -0.0071   0.00    0.0
2020/01/04 13:03:00.000  -25 26 54.11810  -49 13 51.45256   926.0764   6  12   0.0134   0.0266   0.0366  -0.0047  -0.0086  -0.0044   0.00    0.0
2020/01/04 13:03:15.000  -25 26 54.11781  -49 13 51.45288   926.0672   6  12   0.0157   0.0278   0.0416  -0.0054  -0.0058  -0.0066   0.00    0.0
2020/01/04 13:03:30.000  -25 26 54.11815  -49 13 51.45268   926.0728   6  12   0.0132   0.0266   0.0366  -0.0036  -0.0083  -0.0045   0.00    0.0
2020/01/04 13:03:45.000  -25 26 54.11835  -49 13 51.45258   926.0692   6  12   0.0157   0.0277   0.0418  -0.0054  -0.0050  -0.0064   0.00    0.0
2020/01/04 13:04:00.000  -25 26 54.11814  -49 13 51.45255   926.0696   6  12   0.0133   0.0267   0.0371  -0.0047  -0.0082  -0.0050   0.00    0.0
2020/01/04 13:04:15.000  -25 26 54.11815  -49 13 51.45234   926.0657   6  12   0.0155   0.0279   0.0419  -0.0052  -0.0044  -0.0062   0.00    0.0
2020/01/04 13:04:30.000  -25 26 54.11812  -49 13 51.45269   926.0707   6  12   0.0132   0.0261   0.0370  -0.0027  -0.0087  -0.0034   0.00    0.0
2020/01/04 13:04:45.000  -25 26 54.11881  -49 13 51.45253   926.0846   6  12   0.0158   0.0279   0.0421  -0.0049  -0.0037  -0.0055   0.00    0.0
2020/01/04 13:05:00.000  -25 26 54.11828  -49 13 51.45265   926.0884   6  12   0.0135   0.0266   0.0375  -0.0045  -0.0075  -0.0037   0.00    0.0
2020/01/04 13:05:15.000  -25 26 54.11825  -49 13 51.45223   926.0901   6  12   0.0154   0.0279   0.0423  -0.0051  -0.0033  -0.0055   0.00    0.0
2020/01/04 13:05:30.000  -25 26 54.11825  -49 13 51.45281   926.0915   6  12   0.0130   0.0266   0.0373  -0.0041  -0.0085  -0.0034   0.00    0.0
2020/01/04 13:05:45.000  -25 26 54.11849  -49 13 51.45252   926.0576   6  12   0.0156   0.0277   0.0425  -0.0053  -0.0034  -0.0060   0.00    0.0
2020/01/04 13:06:00.000  -25 26 54.11820  -49 13 51.45248   926.0735   6  12   0.0134   0.0265   0.0378  -0.0054  -0.0076  -0.0031   0.00    0.0
2020/01/04 13:06:15.000  -25 26 54.11849  -49 13 51.45264   926.0770   6  12   0.0157   0.0278   0.0426  -0.0045  -0.0041  -0.0045   0.00    0.0
2020/01/04 13:06:30.000  -25 26 54.11820  -49 13 51.45261   926.0731   6  12   0.0131   0.0265   0.0380  -0.0045  -0.0077  -0.0012   0.00    0.0
2020/01/04 13:06:45.000  -25 26 54.11821  -49 13 51.45260   926.0762   6  12   0.0158   0.0280   0.0429  -0.0055  -0.0025  -0.0048   0.00    0.0
2020/01/04 13:07:00.000  -25 26 54.11810  -49 13 51.45265   926.0960   6  12   0.0132   0.0266   0.0382  -0.0043  -0.0076  -0.0043   0.00    0.0
2020/01/04 13:07:15.000  -25 26 54.11790  -49 13 51.45232   926.0957   6  12   0.0156   0.0278   0.0432  -0.0045  -0.0022  -0.0053   0.00    0.0
2020/01/04 13:07:30.000  -25 26 54.11808  -49 13 51.45235   926.0770   6  12   0.0132   0.0264   0.0384  -0.0049  -0.0074  -0.0006   0.00    0.0
2020/01/04 13:07:45.000  -25 26 54.11816  -49 13 51.45231   926.0893   6  12   0.0162   0.0279   0.0434  -0.0049  -0.0028  -0.0045   0.00    0.0
2020/01/04 13:08:00.000  -25 26 54.11806  -49 13 51.45239   926.1024   6  12   0.0131   0.0265   0.0385  -0.0052  -0.0069   0.0026   0.00    0.0
2020/01/04 13:08:15.000  -25 26 54.11837  -49 13 51.45212   926.1143   6  12   0.0158   0.0279   0.0436  -0.0046   0.0023  -0.0039   0.00    0.0
2020/01/04 13:08:30.000  -25 26 54.11814  -49 13 51.45243   926.0852   6  12   0.0130   0.0261   0.0385  -0.0035  -0.0077   0.0044   0.00    0.0
2020/01/04 13:08:45.000  -25 26 54.11776  -49 13 51.45199   926.0749   6  12   0.0156   0.0279   0.0437  -0.0054  -0.0006  -0.0040   0.00    0.0
2020/01/04 13:09:00.000  -25 26 54.11808  -49 13 51.45219   926.0876   6  12   0.0131   0.0263   0.0389  -0.0049  -0.0074  -0.0016   0.00    0.0
2020/01/04 13:09:15.000  -25 26 54.11835  -49 13 51.45220   926.1151   6  12   0.0159   0.0281   0.0443  -0.0054   0.0029  -0.0032   0.00    0.0
2020/01/04 13:09:30.000  -25 26 54.11809  -49 13 51.45238   926.1010   6  12   0.0136   0.0264   0.0396  -0.0048  -0.0063  -0.0007   0.00    0.0
2020/01/04 13:09:45.000  -25 26 54.11773  -49 13 51.45261   926.0793   6  12   0.0159   0.0283   0.0444  -0.0058   0.0023  -0.0023   0.00    0.0
2020/01/04 13:10:00.000  -25 26 54.11821  -49 13 51.45229   926.0901   6  12   0.0136   0.0263   0.0393  -0.0039  -0.0072   0.0038   0.00    0.0
2020/01/04 13:10:15.000  -25 26 54.11806  -49 13 51.45231   926.1055   6  12   0.0160   0.0279   0.0447  -0.0050   0.0029  -0.0034   0.00    0.0
2020/01/04 13:10:30.000  -25 26 54.11819  -49 13 51.45230   926.0762   6  12   0.0133   0.0264   0.0398  -0.0041  -0.0072   0.0027   0.00    0.0
2020/01/04 13:10:45.000  -25 26 54.11789  -49 13 51.45195   926.0392   6  12   0.0161   0.0280   0.0449  -0.0049   0.0027   0.0015   0.00    0.0
2020/01/04 13:11:00.000  -25 26 54.11805  -49 13 51.45224   926.0832   6  12   0.0132   0.0265   0.0400  -0.0021  -0.0075   0.0055   0.00    0.0
2020/01/04 13:11:15.000  -25 26 54.11861  -49 13 51.45202   926.1069   6  12   0.0163   0.0278   0.0451  -0.0042   0.0019   0.0039   0.00    0.0
2020/01/04 13:11:30.000  -25 26 54.11813  -49 13 51.45203   926.0698   6  12   0.0134   0.0262   0.0403  -0.0027  -0.0073   0.0055   0.00    0.0
2020/01/04 13:11:45.000  -25 26 54.11838  -49 13 51.45134   926.0385   6  12   0.0160   0.0279   0.0455  -0.0053   0.0053  -0.0003   0.00    0.0
2020/01/04 13:12:00.000  -25 26 54.11812  -49 13 51.45208   926.0769   6  12   0.0137   0.0264   0.0405  -0.0035  -0.0052   0.0059   0.00    0.0
2020/01/04 13:12:15.000  -25 26 54.11766  -49 13 51.45252   926.0780   6  12   0.0158   0.0279   0.0457  -0.0033   0.0034   0.0035   0.00    0.0
2020/01/04 13:12:30.000  -25 26 54.11801  -49 13 51.45211   926.0717   6  12   0.0135   0.0264   0.0409   0.0022  -0.0065   0.0057   0.00    0.0
2020/01/04 13:12:45.000  -25 26 54.11824  -49 13 51.45186   926.0833   6  12   0.0162   0.0277   0.0461  -0.0038   0.0043   0.0033   0.00    0.0
2020/01/04 13:13:00.000  -25 26 54.11819  -49 13 51.45207   926.0782   6  12   0.0139   0.0265   0.0413  -0.0037  -0.0053   0.0054   0.00    0.0
2020/01/04 13:13:15.000  -25 26 54.11823  -49 13 51.45225   926.0696   6  12   0.0160   0.0278   0.0464  -0.0040   0.0043   0.0048   0.00    0.0
2020/01/04 13:13:30.000  -25 26 54.11825  -49 13 51.45210   926.0670   6  12   0.0139   0.0266   0.0414  -0.0046  -0.0071   0.0070   0.00    0.0
2020/01/04 13:13:45.000  -25 26 54.11783  -49 13 51.45211   926.0685   6  12   0.0163   0.0280   0.0466  -0.0041   0.0048   0.0065   0.00    0.0
2020/01/04 13:14:00.000  -25 26 54.11828  -49 13 51.45205   926.0682   6  12   0.0144   0.0266   0.0422  -0.0032  -0.0050   0.0062   0.00    0.0
2020/01/04 13:14:15.000  -25 26 54.11804  -49 13 51.45204   926.0563   6  12   0.0161   0.0280   0.0470  -0.0041   0.0056   0.0058   0.00    0.0
2020/01/04 13:14:30.000  -25 26 54.11822  -49 13 51.45205   926.0698   6  12   0.0139   0.0262   0.0419  -0.0025  -0.0061   0.0079   0.00    0.0
2020/01/04 13:14:45.000  -25 26 54.11852  -49 13 51.45220   926.0745   6  12   0.0163   0.0279   0.0473  -0.0044   0.0047   0.0071   0.00    0.0
2020/01/04 13:15:00.000  -25 26 54.11837  -49 13 51.45188   926.0690   6  12   0.0135   0.0267   0.0426  -0.0027  -0.0051   0.0061   0.00    0.0
2020/01/04 13:15:15.000  -25 26 54.11864  -49 13 51.45166   926.0763   6  12   0.0165   0.0281   0.0477  -0.0034   0.0060   0.0067   0.00    0.0
2020/01/04 13:15:30.000  -25 26 54.11834  -49 13 51.45188   926.0560   6  12   0.0142   0.0266   0.0430  -0.0039  -0.0047   0.0078   0.00    0.0
2020/01/04 13:15:45.000  -25 26 54.11816  -49 13 51.45157   926.0996   6  12   0.0162   0.0280   0.0481  -0.0040   0.0054   0.0069   0.00    0.0
2020/01/04 13:16:00.000  -25 26 54.11844  -49 13 51.45190   926.0655   6  12   0.0143   0.0264   0.0429  -0.0005  -0.0070   0.0086   0.00    0.0
2020/01/04 13:16:15.000  -25 26 54.11920  -49 13 51.45177   926.0630   6  12   0.0162   0.0281   0.0485  -0.0045   0.0059   0.0073   0.00    0.0
2020/01/04 13:16:30.000  -25 26 54.11837  -49 13 51.45191   926.0784   6  12   0.0138   0.0263   0.0434  -0.0039  -0.0060   0.0082   0.00    0.0
2020/01/04 13:16:45.000  -25 26 54.11822  -49 13 51.45194   926.0698   6  12   0.0162   0.0279   0.0488  -0.0039   0.0059   0.0085   0.00    0.0
2020/01/04 13:17:00.000  -25 26 54.11816  -49 13 51.45191   926.0656   6  12   0.0132   0.0262   0.0441  -0.0040  -0.0053   0.0088   0.00    0.0
2020/01/04 13:17:15.000  -25 26 54.11839  -49 13 51.45156   926.0770   6  12   0.0166   0.0280   0.0495  -0.0043   0.0069   0.0082   0.00    0.0
2020/01/04 13:17:30.000  -25 26 54.11827  -49 13 51.45196   926.0775   6  12   0.0139   0.0263   0.0446  -0.0039  -0.0045   0.0090   0.00    0.0
2020/01/04 13:17:45.000  -25 26 54.11810  -49 13 51.45197   926.0635   6  12   0.0163   0.0281   0.0502  -0.0041   0.0062   0.0088   0.00    0.0
2020/01/04 13:18:00.000  -25 26 54.11818  -49 13 51.45185   926.0539   6  12   0.0142   0.0264   0.0455  -0.0034  -0.0050   0.0097   0.00    0.0
2020/01/04 13:18:15.000  -25 26 54.11823  -49 13 51.45158   926.0482   6  12   0.0166   0.0283   0.0524  -0.0046   0.0066   0.0105   0.00    0.0
2020/01/04 13:18:30.000  -25 26 54.11813  -49 13 51.45183   926.0386   6  11   0.0145   0.0264   0.0494  -0.0041  -0.0081   0.0130   0.00    0.0
2020/01/04 13:18:45.000  -25 26 54.11865  -49 13 51.45130   926.0499   6  11   0.0170   0.0284   0.0568  -0.0047  -0.0029   0.0143   0.00    0.0
2020/01/04 13:19:00.000  -25 26 54.11819  -49 13 51.45178   926.0485   6  11   0.0141   0.0264   0.0497  -0.0045  -0.0075   0.0127   0.00    0.0
2020/01/04 13:19:15.000  -25 26 54.11801  -49 13 51.45188   926.0391   6  12   0.0174   0.0281   0.0555  -0.0043  -0.0043   0.0146   0.00    0.0
2020/01/04 13:19:30.000  -25 26 54.11815  -49 13 51.45169   926.0536   6  12   0.0149   0.0265   0.0488  -0.0020  -0.0058   0.0125   0.00    0.0
2020/01/04 13:19:45.000  -25 26 54.11752  -49 13 51.45191   926.0952   6  11   0.0178   0.0285   0.0578  -0.0060   0.0020   0.0151   0.00    0.0
2020/01/04 13:20:00.000  -25 26 54.11814  -49 13 51.45168   926.0767   6  11   0.0137   0.0265   0.0503  -0.0041  -0.0073   0.0137   0.00    0.0
2020/01/04 13:20:15.000  -25 26 54.11892  -49 13 51.45095   926.0811   6  11   0.0177   0.0283   0.0582  -0.0052  -0.0015   0.0159   0.00    0.0
2020/01/04 13:20:30.000  -25 26 54.11831  -49 13 51.45169   926.0664   6  11   0.0150   0.0265   0.0508  -0.0039  -0.0069   0.0143   0.00    0.0
2020/01/04 13:20:45.000  -25 26 54.11824  -49 13 51.45191   926.0386   6  11   0.0177   0.0283   0.0586  -0.0050  -0.0037   0.0159   0.00    0.0
2020/01/04 13:21:00.000  -25 26 54.11827  -49 13 51.45144   926.0616   6  11   0.0151   0.0263   0.0514  -0.0051  -0.0077   0.0139   0.00    0.0
2020/01/04 13:21:15.000  -25 26 54.11867  -49 13 51.45105   926.0534   6  11   0.0176   0.0283   0.0594  -0.0055   0.0018   0.0161   0.00    0.0
2020/01/04 13:21:30.000  -25 26 54.11821  -49 13 51.45137   926.0712   6  11   0.0143   0.0261   0.0519  -0.0028  -0.0075   0.0141   0.00    0.0
2020/01/04 13:21:45.000  -25 26 54.11814  -49 13 51.45153   926.0453   6  11   0.0175   0.0282   0.0606  -0.0050  -0.0006   0.0165   0.00    0.0
2020/01/04 13:22:00.000  -25 26 54.11836  -49 13 51.45124   926.0562   6  11   0.0147   0.0264   0.0528  -0.0029  -0.0068   0.0147   0.00    0.0
2020/01/04 13:22:15.000  -25 26 54.11820  -49 13 51.45140   926.0889   6  11   0.0181   0.0286   0.0634  -0.0056  -0.0006   0.0184   0.00    0.0
2020/01/04 13:22:30.000  -25 26 54.11823  -49 13 51.45135   926.0751   6  10   0.0155   0.0265   0.0585  -0.0039  -0.0114   0.0179   0.00    0.0
2020/01/04 13:22:45.000  -25 26 54.11843  -49 13 51.45093   926.0551   6  10   0.0190   0.0284   0.0711  -0.0065  -0.0108   0.0233   0.00    0.0
2020/01/04 13:23:00.000  -25 26 54.11801  -49 13 51.45120   926.0672   6  10   0.0152   0.0267   0.0590  -0.0057  -0.0100   0.0183   0.00    0.0
2020/01/04 13:23:15.000  -25 26 54.11820  -49 13 51.45116   926.0878   6  10   0.0189   0.0287   0.0714  -0.0061  -0.0105   0.0234   0.00    0.0
2020/01/04 13:23:30.000  -25 26 54.11802  -49 13 51.45127   926.0834   6  10   0.0159   0.0264   0.0588  -0.0055  -0.0113   0.0189   0.00    0.0
2020/01/04 13:23:45.000  -25 26 54.11822  -49 13 51.45096   926.0681   6  10   0.0192   0.0285   0.0718  -0.0070  -0.0102   0.0235   0.00    0.0
2020/01/04 13:24:00.000  -25 26 54.11819  -49 13 51.45114   926.0750   6  10   0.0158   0.0268   0.0591  -0.0043  -0.0111   0.0189   0.00    0.0
2020/01/04 13:24:15.000  -25 26 54.11758  -49 13 51.45119   926.1089   6  10   0.0192   0.0290   0.0721  -0.0062  -0.0101   0.0237   0.00    0.0
2020/01/04 13:24:30.000  -25 26 54.11807  -49 13 51.45126   926.0684   6  10   0.0156   0.0265   0.0592  -0.0046  -0.0105   0.0192   0.00    0.0
2020/01/04 13:24:45.000  -25 26 54.11878  -49 13 51.45066   925.9930   6  10   0.0192   0.0286   0.0724  -0.0062  -0.0096   0.0238   0.00    0.0
2020/01/04 13:25:00.000  -25 26 54.11813  -49 13 51.45115   926.0467   6  10   0.0159   0.0268   0.0596  -0.0032  -0.0109   0.0193   0.00    0.0
2020/01/04 13:25:15.000  -25 26 54.11834  -49 13 51.45086   926.0283   6  10   0.0191   0.0288   0.0727  -0.0063  -0.0096   0.0242   0.00    0.0
2020/01/04 13:25:30.000  -25 26 54.11821  -49 13 51.45094   926.0314   6  10   0.0157   0.0265   0.0597  -0.0056  -0.0101   0.0197   0.00    0.0
2020/01/04 13:25:45.000  -25 26 54.11824  -49 13 51.45109   926.0647   6  10   0.0194   0.0289   0.0731  -0.0067  -0.0087   0.0242   0.00    0.0
2020/01/04 13:26:00.000  -25 26 54.11817  -49 13 51.45120   926.0488   6  10   0.0163   0.0271   0.0599  -0.0057  -0.0097   0.0194   0.00    0.0
2020/01/04 13:26:15.000  -25 26 54.11778  -49 13 51.45134   926.0697   6  10   0.0193   0.0287   0.0733  -0.0063  -0.0091   0.0246   0.00    0.0
2020/01/04 13:26:30.000  -25 26 54.11825  -49 13 51.45113   926.0379   6  10   0.0157   0.0270   0.0599  -0.0047  -0.0098   0.0197   0.00    0.0
2020/01/04 13:26:45.000  -25 26 54.11927  -49 13 51.45030   925.9829   6  10   0.0197   0.0291   0.0736  -0.0060  -0.0087   0.0247   0.00    0.0
2020/01/04 13:27:00.000  -25 26 54.11826  -49 13 51.45109   926.0705   6  10   0.0167   0.0267   0.0604  -0.0065  -0.0091   0.0200   0.00    0.0
2020/01/04 13:27:15.000  -25 26 54.11788  -49 13 51.45118   926.0773   6  10   0.0199   0.0291   0.0738  -0.0064  -0.0083   0.0248   0.00    0.0
2020/01/04 13:27:30.000  -25 26 54.11811  -49 13 51.45122   926.0648   6  10   0.0167   0.0267   0.0605  -0.0064  -0.0095   0.0204   0.00    0.0
2020/01/04 13:27:45.000  -25 26 54.11842  -49 13 51.45128   926.0613   6  10   0.0199   0.0290   0.0740  -0.0060  -0.0081   0.0252   0.00    0.0
2020/01/04 13:28:00.000  -25 26 54.11817  -49 13 51.45139   926.0686   6  10   0.0170   0.0265   0.0607  -0.0049  -0.0093   0.0200   0.00    0.0
2020/01/04 13:28:15.000  -25 26 54.11801  -49 13 51.45144   926.1004   6  10   0.0197   0.0289   0.0743  -0.0061  -0.0076   0.0254   0.00    0.0
2020/01/04 13:28:30.000  -25 26 54.11802  -49 13 51.45145   926.0672   6  10   0.0161   0.0271   0.0609  -0.0056  -0.0090   0.0202   0.00    0.0
2020/01/04 13:28:45.000  -25 26 54.11793  -49 13 51.45157   926.0195   6  10   0.0199   0.0290   0.0745  -0.0060  -0.0068   0.0256   0.00    0.0
2020/01/04 13:29:00.000  -25 26 54.11809  -49 13 51.45126   926.0768   6  10   0.0166   0.0272   0.0611  -0.0062  -0.0093   0.0205   0.00    0.0
2020/01/04 13:29:15.000  -25 26 54.11817  -49 13 51.45134   926.0680   6  10   0.0201   0.0292   0.0749  -0.0058  -0.0066   0.0258   0.00    0.0
2020/01/04 13:29:30.000  -25 26 54.11814  -49 13 51.45124   926.0592   6  10   0.0172   0.0270   0.0612  -0.0054  -0.0089   0.0209   0.00    0.0
2020/01/04 13:29:45.000  -25 26 54.11830  -49 13 51.45090   926.0295   6  10   0.0199   0.0292   0.0752  -0.0068  -0.0062   0.0258   0.00    0.0
2020/01/04 13:30:00.000  -25 26 54.11811  -49 13 51.45119   926.0693   6  10   0.0167   0.0270   0.0614  -0.0028  -0.0086   0.0209   0.00    0.0
2020/01/04 13:30:15.000  -25 26 54.11776  -49 13 51.45133   926.1291   6  10   0.0202   0.0294   0.0752  -0.0060  -0.0052   0.0260   0.00    0.0
2020/01/04 13:30:30.000  -25 26 54.11820  -49 13 51.45120   926.0599   6  10   0.0165   0.0267   0.0616  -0.0052  -0.0079   0.0211   0.00    0.0
2020/01/04 13:30:45.000  -25 26 54.11802  -49 13 51.45102   925.9911   6  10   0.0205   0.0293   0.0755  -0.0051  -0.0060   0.0264   0.00    0.0
2020/01/04 13:31:00.000  -25 26 54.11795  -49 13 51.45128   926.0679   6  10   0.0165   0.0272   0.0616  -0.0029  -0.0080   0.0217   0.00    0.0
2020/01/04 13:31:15.000  -25 26 54.11867  -49 13 51.45096   926.0712   6  10   0.0207   0.0292   0.0756  -0.0058  -0.0054   0.0266   0.00    0.0
2020/01/04 13:31:30.000  -25 26 54.11805  -49 13 51.45127   926.0767   6  10   0.0169   0.0268   0.0615  -0.0045  -0.0079   0.0213   0.00    0.0
2020/01/04 13:31:45.000  -25 26 54.11822  -49 13 51.45107   926.0636   6  10   0.0204   0.0291   0.0757  -0.0059  -0.0045   0.0266   0.00    0.0
2020/01/04 13:32:00.000  -25 26 54.11816  -49 13 51.45097   926.0489   6  10   0.0168   0.0266   0.0617  -0.0015  -0.0076   0.0214   0.00    0.0
2020/01/04 13:32:15.000  -25 26 54.11789  -49 13 51.45125   926.0686   6  10   0.0204   0.0293   0.0757  -0.0046  -0.0029   0.0268   0.00    0.0
2020/01/04 13:32:30.000  -25 26 54.11815  -49 13 51.45110   926.0504   6  10   0.0167   0.0270   0.0619  -0.0034  -0.0072   0.0216   0.00    0.0
2020/01/04 13:32:45.000  -25 26 54.11870  -49 13 51.45061   926.0391   6  10   0.0206   0.0294   0.0759  -0.0057  -0.0019   0.0271   0.00    0.0
2020/01/04 13:33:00.000  -25 26 54.11821  -49 13 51.45092   926.0561   6  10   0.0178   0.0269   0.0620  -0.0026  -0.0072   0.0220   0.00    0.0
2020/01/04 13:33:15.000  -25 26 54.11822  -49 13 51.45102   926.0571   6  10   0.0209   0.0294   0.0758  -0.0060   0.0026   0.0269   0.00    0.0
2020/01/04 13:33:30.000  -25 26 54.11823  -49 13 51.45098   926.0564   6  10   0.0171   0.0267   0.0619  -0.0036  -0.0073   0.0217   0.00    0.0
2020/01/04 13:33:45.000  -25 26 54.11778  -49 13 51.45101   926.0668   6  10   0.0208   0.0294   0.0760  -0.0055   0.0034   0.0270   0.00    0.0
2020/01/04 13:34:00.000  -25 26 54.11804  -49 13 51.45091   926.0541   6  10   0.0178   0.0271   0.0621  -0.0054  -0.0067   0.0219   0.00    0.0
2020/01/04 13:34:15.000  -25 26 54.11781  -49 13 51.45081   926.0769   6  10   0.0209   0.0294   0.0761  -0.0061   0.0047   0.0272   0.00    0.0
2020/01/04 13:34:30.000  -25 26 54.11805  -49 13 51.45109   926.0719   6  10   0.0168   0.0271   0.0620  -0.0054  -0.0075   0.0219   0.00    0.0
2020/01/04 13:34:45.000  -25 26 54.11763  -49 13 51.45097   926.0490   6  10   0.0209   0.0296   0.0762  -0.0048   0.0055   0.0273   0.00    0.0
2020/01/04 13:35:00.000  -25 26 54.11801  -49 13 51.45101   926.0714   6  10   0.0173   0.0273   0.0623  -0.0023  -0.0067   0.0222   0.00    0.0
2020/01/04 13:35:15.000  -25 26 54.11856  -49 13 51.45089   926.1067   6  10   0.0212   0.0296   0.0762  -0.0045   0.0062   0.0273   0.00    0.0
2020/01/04 13:35:30.000  -25 26 54.11814  -49 13 51.45093   926.0630   6  10   0.0168   0.0274   0.0622  -0.0050  -0.0048   0.0218   0.00    0.0
2020/01/04 13:35:45.000  -25 26 54.11811  -49 13 51.45063   926.0478   6  10   0.0210   0.0293   0.0763  -0.0049   0.0057   0.0275   0.00    0.0
2020/01/04 13:36:00.000  -25 26 54.11797  -49 13 51.45092   926.0663   6  10   0.0171   0.0268   0.0625  -0.0044  -0.0053   0.0222   0.00    0.0
2020/01/04 13:36:15.000  -25 26 54.11842  -49 13 51.45040   926.0835   6  10   0.0213   0.0297   0.0763  -0.0046   0.0061   0.0272   0.00    0.0
2020/01/04 13:36:30.000  -25 26 54.11790  -49 13 51.45078   926.0706   6  10   0.0166   0.0270   0.0624  -0.0013  -0.0044   0.0223   0.00    0.0
2020/01/04 13:36:45.000  -25 26 54.11808  -49 13 51.45057   926.0769   6  10   0.0211   0.0298   0.0763  -0.0052   0.0073   0.0276   0.00    0.0
2020/01/04 13:37:00.000  -25 26 54.11805  -49 13 51.45072   926.0690   6  10   0.0173   0.0270   0.0624  -0.0046  -0.0044   0.0220   0.00    0.0
2020/01/04 13:37:15.000  -25 26 54.11780  -49 13 51.45071   926.1111   6  10   0.0212   0.0296   0.0764  -0.0052   0.0070   0.0277   0.00    0.0
2020/01/04 13:37:30.000  -25 26 54.11817  -49 13 51.45066   926.0596   6  10   0.0179   0.0274   0.0624   0.0006  -0.0028   0.0226   0.00    0.0
2020/01/04 13:37:45.000  -25 26 54.11825  -49 13 51.45098   926.0684   6  10   0.0214   0.0296   0.0764  -0.0057   0.0073   0.0281   0.00    0.0
2020/01/04 13:38:00.000  -25 26 54.11819  -49 13 51.45076   926.0219   6  10   0.0176   0.0274   0.0625   0.0017  -0.0011   0.0226   0.00    0.0
2020/01/04 13:38:15.000  -25 26 54.11793  -49 13 51.45091   926.0209   6  10   0.0214   0.0296   0.0765  -0.0054   0.0083   0.0278   0.00    0.0
2020/01/04 13:38:30.000  -25 26 54.11814  -49 13 51.45090   926.0362   6  10   0.0174   0.0271   0.0625  -0.0048  -0.0035   0.0222   0.00    0.0
2020/01/04 13:38:45.000  -25 26 54.11846  -49 13 51.45039   926.0747   6  10   0.0217   0.0297   0.0765  -0.0046   0.0079   0.0280   0.00    0.0
2020/01/04 13:39:00.000  -25 26 54.11811  -49 13 51.45079   926.0389   6  10   0.0180   0.0270   0.0626   0.0007  -0.0035   0.0229   0.00    0.0
2020/01/04 13:39:15.000  -25 26 54.11816  -49 13 51.45078   926.0111   6  10   0.0212   0.0298   0.0765  -0.0052   0.0091   0.0280   0.00    0.0
2020/01/04 13:39:30.000  -25 26 54.11822  -49 13 51.45080   926.0347   6  10   0.0185   0.0272   0.0626   0.0024   0.0008   0.0225   0.00    0.0
2020/01/04 13:39:45.000  -25 26 54.11878  -49 13 51.45083   926.0563   6  10   0.0217   0.0297   0.0765  -0.0056   0.0092   0.0279   0.00    0.0
2020/01/04 13:40:00.000  -25 26 54.11826  -49 13 51.45069   926.0392   6  10   0.0187   0.0271   0.0626   0.0017  -0.0019   0.0230   0.00    0.0
2020/01/04 13:40:15.000  -25 26 54.11806  -49 13 51.45028   926.0540   6  10   0.0216   0.0298   0.0766  -0.0055   0.0093   0.0279   0.00    0.0
2020/01/04 13:40:30.000  -25 26 54.11832  -49 13 51.45076   926.0283   6  10   0.0180   0.0270   0.0625  -0.0040  -0.0028   0.0224   0.00    0.0
2020/01/04 13:40:45.000  -25 26 54.11863  -49 13 51.45092   926.0056   6  11   0.0219   0.0299   0.0759  -0.0045   0.0089   0.0280   0.00    0.0
2020/01/04 13:41:00.000  -25 26 54.11831  -49 13 51.45083   926.0274   6  11   0.0174   0.0270   0.0610  -0.0046  -0.0041   0.0233   0.00    0.0
